$GPGGA,182722.000,,,,,0,00,,,,,,,*74
$GPRMC,182722.000,V,,,,,,,031099,,,N*43
$GPGGA,182723.000,,,,,0,00,,,,,,,*75
$GPRMC,182723.000,V,,,,,,,031099,,,N*42
$GPGGA,182724.000,,,,,0,00,,,,,,,*72
$GPRMC,182724.000,V,,,,,,,031099,,,N*45
$GPGGA,182725.000,,,,,0,00,,,,,,,*73
$GPRMC,182725.000,V,,,,,,,031099,,,N*44
$GPGGA,182726.000,,,,,0,00,,,,,,,*70
$GPRMC,182726.000,V,,,,,,,031099,,,N*47
$GPGGA,182727.000,,,,,0,00,,,,,,,*71
$GPRMC,182727.000,V,,,,,,,031099,,,N*46
$GPGGA,182728.000,,,,,0,00,,,,,,,*7E
$GPRMC,182728.000,V,,,,,,,031099,,,N*49
$GPGGA,182729.000,,,,,0,00,,,,,,,*7F
$GPRMC,182729.000,V,,,,,,,031099,,,N*48
$GPGGA,182730.000,,,,,0,00,,,,,,,*77
$GPRMC,182730.000,V,,,,,,,031099,,,N*40
$GPGGA,182731.000,,,,,0,00,,,,,,,*76
$GPRMC,182731.000,V,,,,,,,031099,,,N*41
$GPGGA,182732.000,,,,,0,00,,,,,,,*75
$GPRMC,182732.000,V,,,,,,,031099,,,N*42
$GPGGA,182733.000,,,,,0,00,,,,,,,*74
$GPRMC,182733.000,V,,,,,,,031099,,,N*43
$GPGGA,182734.000,,,,,0,00,,,,,,,*73
$GPRMC,182734.000,V,,,,,,,031099,,,N*44
$GPGGA,182735.000,,,,,0,00,,,,,,,*72
$GPRMC,182735.000,V,,,,,,,031099,,,N*45
$GPGGA,182736.000,,,,,0,00,,,,,,,*71
$GPRMC,182736.000,V,,,,,,,031099,,,N*46
$GPGGA,182737.000,,,,,0,00,,,,,,,*70
$GPRMC,182737.000,V,,,,,,,031099,,,N*47
$GPGGA,182738.000,,,,,0,00,,,,,,,*7F
$GPRMC,182738.000,V,,,,,,,031099,,,N*48
$GPGGA,182739.000,,,,,0,00,,,,,,,*7E
$GPRMC,182739.000,V,,,,,,,031099,,,N*49
$GPGGA,182740.000,,,,,0,00,,,,,,,*70
$GPRMC,182740.000,V,,,,,,,031099,,,N*47
$GPGGA,182741.000,,,,,0,00,,,,,,,*71
$GPRMC,182741.000,V,,,,,,,031099,,,N*46
$GPGGA,182742.000,,,,,0,00,,,,,,,*72
$GPRMC,182742.000,V,,,,,,,031099,,,N*45
$GPGGA,182743.000,,,,,0,00,,,,,,,*73
$GPRMC,182743.000,V,,,,,,,031099,,,N*44
$GPGGA,182744.000,,,,,0,00,,,,,,,*74
$GPRMC,182744.000,V,,,,,,,031099,,,N*43
$GPGGA,182745.000,,,,,0,00,,,,,,,*75
$GPRMC,182745.000,V,,,,,,,031099,,,N*42
$GPGGA,182746.000,,,,,0,00,,,,,,,*76
$GPRMC,182746.000,V,,,,,,,031099,,,N*41
$GPGGA,182747.000,,,,,0,00,,,,,,,*77
$GPRMC,182747.000,V,,,,,,,031099,,,N*40
$GPGGA,182748.000,,,,,0,00,,,,,,,*78
$GPRMC,182748.000,V,,,,,,,031099,,,N*4F
$GPGGA,182749.000,,,,,0,00,,,,,,,*79
$GPRMC,182749.000,V,,,,,,,031099,,,N*4E
$GPGGA,182750.000,,,,,0,00,,,,,,,*71
$GPRMC,182750.000,V,,,,,,,031099,,,N*46
$GPGGA,182751.000,,,,,0,00,,,,,,,*70
$GPRMC,182751.000,V,,,,,,,031099,,,N*47
$GPGGA,182752.000,,,,,0,00,,,,,,,*73
$GPRMC,182752.000,V,,,,,,,031099,,,N*44
$GPGGA,182753.000,,,,,0,00,,,,,,,*72
$GPRMC,182753.000,V,,,,,,,031099,,,N*45
$GPGGA,182754.000,,,,,0,00,,,,,,,*75
$GPRMC,182754.000,V,,,,,,,031099,,,N*42
$GPGGA,182755.000,,,,,0,00,,,,,,,*74
$GPRMC,182755.000,V,,,,,,,031099,,,N*43
$GPGGA,182756.000,,,,,0,00,,,,,,,*77
$GPRMC,182756.000,V,,,,,,,031099,,,N*40
$GPGGA,182757.000,,,,,0,00,,,,,,,*76
$GPRMC,182757.000,V,,,,,,,031099,,,N*41
$GPGGA,182758.000,,,,,0,00,,,,,,,*79
$GPRMC,182758.000,V,,,,,,,031099,,,N*4E
$GPGGA,182759.000,,,,,0,00,,,,,,,*78
$GPRMC,182759.000,V,,,,,,,031099,,,N*4F
$GPGGA,182800.000,,,,,0,00,,,,,,,*7B
$GPRMC,182800.000,V,,,,,,,031099,,,N*4C
$GPGGA,182801.000,,,,,0,00,,,,,,,*7A
$GPRMC,182801.000,V,,,,,,,031099,,,N*4D
$GPGGA,182802.000,,,,,0,00,,,,,,,*79
$GPRMC,182802.000,V,,,,,,,031099,,,N*4E
$GPGGA,182803.000,,,,,0,00,,,,,,,*78
$GPRMC,182803.000,V,,,,,,,031099,,,N*4F
$GPGGA,182804.000,,,,,0,00,,,,,,,*7F
$GPRMC,182804.000,V,,,,,,,031099,,,N*48
$GPGGA,182805.000,,,,,0,00,,,,,,,*7E
$GPRMC,182805.000,V,,,,,,,031099,,,N*49
$GPGGA,182806.000,,,,,0,00,,,,,,,*7D
$GPRMC,182806.000,V,,,,,,,031099,,,N*4A
$GPGGA,182807.000,,,,,0,00,,,,,,,*7C
$GPRMC,182807.000,V,,,,,,,031099,,,N*4B
$GPGGA,182808.000,,,,,0,00,,,,,,,*73
$GPRMC,182808.000,V,,,,,,,031099,,,N*44
$GPGGA,182809.000,,,,,0,00,,,,,,,*72
$GPRMC,182809.000,V,,,,,,,031099,,,N*45
$GPGGA,182810.000,,,,,0,00,,,,,,,*7A
$GPRMC,182810.000,V,,,,,,,031099,,,N*4D
$GPGGA,182811.000,,,,,0,00,,,,,,,*7B
$GPRMC,182811.000,V,,,,,,,031099,,,N*4C
$GPGGA,182812.000,,,,,0,00,,,,,,,*78
$GPRMC,182812.000,V,,,,,,,031099,,,N*4F
$GPGGA,182813.000,,,,,0,00,,,,,,,*79
$GPRMC,182813.000,V,,,,,,,031099,,,N*4E
$GPGGA,182814.000,,,,,0,00,,,,,,,*7E
$GPRMC,182814.000,V,,,,,,,031099,,,N*49
$GPGGA,182815.000,,,,,0,00,,,,,,,*7F
$GPRMC,182815.000,V,,,,,,,031099,,,N*48
$GPGGA,182816.000,,,,,0,00,,,,,,,*7C
$GPRMC,182816.000,V,,,,,,,031099,,,N*4B
$GPGGA,182817.000,,,,,0,00,,,,,,,*7D
$GPRMC,182817.000,V,,,,,,,031099,,,N*4A
$GPGGA,182818.000,,,,,0,00,,,,,,,*72
$GPRMC,182818.000,V,,,,,,,031099,,,N*45
$GPGGA,182819.000,,,,,0,00,,,,,,,*73
$GPRMC,182819.000,V,,,,,,,031099,,,N*44
$GPGGA,182819.999,,,,,0,00,,,,,,,*7A
$GPRMC,182819.999,V,,,,,,,031099,,,N*4D
$GPGGA,182820.999,,,,,0,00,,,,,,,*70
$GPRMC,182820.999,V,,,,,,,031099,,,N*47
$GPGGA,182822.000,,,,,0,00,,,,,,,*7B
$GPRMC,182822.000,V,,,,,,,031099,,,N*4C
$GPGGA,182823.000,,,,,0,00,,,,,,,*7A
$GPRMC,182823.000,V,,,,,,,031099,,,N*4D
$GPGGA,182824.000,,,,,0,00,,,,,,,*7D
$GPRMC,182824.000,V,,,,,,,031099,,,N*4A
$GPGGA,182825.000,,,,,0,00,,,,,,,*7C
$GPRMC,182825.000,V,,,,,,,031099,,,N*4B
$GPGGA,182826.000,,,,,0,00,,,,,,,*7F
$GPRMC,182826.000,V,,,,,,,031099,,,N*48
$GPGGA,182827.000,,,,,0,00,,,,,,,*7E
$GPRMC,182827.000,V,,,,,,,031099,,,N*49
$GPGGA,182828.000,,,,,0,00,,,,,,,*71
$GPRMC,182828.000,V,,,,,,,031099,,,N*46
$GPGGA,182829.000,,,,,0,00,,,,,,,*70
$GPRMC,182829.000,V,,,,,,,031099,,,N*47
$GPGGA,182830.000,,,,,0,00,,,,,,,*78
$GPRMC,182830.000,V,,,,,,,031099,,,N*4F
$GPGGA,182831.000,,,,,0,00,,,,,,,*79
$GPRMC,182831.000,V,,,,,,,031099,,,N*4E
$GPGGA,182832.000,,,,,0,00,,,,,,,*7A
$GPRMC,182832.000,V,,,,,,,031099,,,N*4D
$GPGGA,182833.000,,,,,0,00,,,,,,,*7B
$GPRMC,182833.000,V,,,,,,,031099,,,N*4C
$GPGGA,182834.000,,,,,0,00,,,,,,,*7C
$GPRMC,182834.000,V,,,,,,,031099,,,N*4B
$GPGGA,182835.000,,,,,0,00,,,,,,,*7D
$GPRMC,182835.000,V,,,,,,,031099,,,N*4A
$GPGGA,182836.000,,,,,0,00,,,,,,,*7E
$GPRMC,182836.000,V,,,,,,,031099,,,N*49
$GPGGA,182837.000,,,,,0,00,,,,,,,*7F
$GPRMC,182837.000,V,,,,,,,031099,,,N*48
$GPGGA,182838.000,,,,,0,00,,,,,,,*70
$GPRMC,182838.000,V,,,,,,,031099,,,N*47
$GPGGA,182839.000,,,,,0,00,,,,,,,*71
$GPRMC,182839.000,V,,,,,,,031099,,,N*46
$GPGGA,182837.000,,,,,0,00,,,,,,,*7F
$GPRMC,182837.000,V,,,,,,,031099,,,N*48
$GPGGA,182838.000,,,,,0,00,,,,,,,*70
$GPRMC,182838.000,V,,,,,,,031099,,,N*47
$GPGGA,182839.000,,,,,0,00,,,,,,,*71
$GPRMC,182839.000,V,,,,,,,031099,,,N*46
$GPGGA,182840.000,,,,,0,00,,,,,,,*7F
$GPRMC,182840.000,V,,,,,,,031099,,,N*48
$GPGGA,182841.000,,,,,0,00,,,,,,,*7E
$GPRMC,182841.000,V,,,,,,,031099,,,N*49
$GPGGA,182842.000,,,,,0,00,,,,,,,*7D
$GPRMC,182842.000,V,,,,,,,031099,,,N*4A
$GPGGA,182843.000,,,,,0,00,,,,,,,*7C
$GPRMC,182843.000,V,,,,,,,031099,,,N*4B
$GPGGA,182844.000,,,,,0,00,,,,,,,*7B
$GPRMC,182844.000,V,,,,,,,031099,,,N*4C
$GPGGA,182845.000,,,,,0,00,,,,,,,*7A
$GPRMC,182845.000,V,,,,,,,031099,,,N*4D
$GPGGA,182846.000,,,,,0,00,,,,,,,*79
$GPRMC,182846.000,V,,,,,,,031099,,,N*4E
$GPGGA,182847.000,,,,,0,00,,,,,,,*78
$GPRMC,182847.000,V,,,,,,,031099,,,N*4F
$GPGGA,182848.000,,,,,0,00,,,,,,,*77
$GPRMC,182848.000,V,,,,,,,031099,,,N*40
$GPGGA,182849.000,,,,,0,00,,,,,,,*76
$GPRMC,182849.000,V,,,,,,,031099,,,N*41
$GPGGA,182850.000,,,,,0,00,,,,,,,*7E
$GPRMC,182850.000,V,,,,,,,031099,,,N*49
$GPGGA,182851.000,,,,,0,00,,,,,,,*7F
$GPRMC,182851.000,V,,,,,,,031099,,,N*48
$GPGGA,182852.000,,,,,0,00,,,,,,,*7C
$GPRMC,182852.000,V,,,,,,,031099,,,N*4B
$GPGGA,182853.000,,,,,0,00,,,,,,,*7D
$GPRMC,182853.000,V,,,,,,,031099,,,N*4A
$GPGGA,182854.000,,,,,0,00,,,,,,,*7A
$GPRMC,182854.000,V,,,,,,,031099,,,N*4D
$GPGGA,182855.000,,,,,0,00,,,,,,,*7B
$GPRMC,182855.000,V,,,,,,,031099,,,N*4C
$GPGGA,182856.000,,,,,0,00,,,,,,,*78
$GPRMC,182856.000,V,,,,,,,031099,,,N*4F
$GPGGA,182857.000,,,,,0,00,,,,,,,*79
$GPRMC,182857.000,V,,,,,,,031099,,,N*4E
$GPGGA,182858.000,,,,,0,00,,,,,,,*76
$GPRMC,182858.000,V,,,,,,,031099,,,N*41
$GPGGA,182859.000,,,,,0,00,,,,,,,*77
$GPRMC,182859.000,V,,,,,,,031099,,,N*40
$GPGGA,182900.000,,,,,0,00,,,,,,,*7A
$GPRMC,182900.000,V,,,,,,,031099,,,N*4D
$GPGGA,182901.000,,,,,0,00,,,,,,,*7B
$GPRMC,182901.000,V,,,,,,,031099,,,N*4C
$GPGGA,182902.000,,,,,0,00,,,,,,,*78
$GPRMC,182902.000,V,,,,,,,031099,,,N*4F
$GPGGA,182903.000,,,,,0,00,,,,,,,*79
$GPRMC,182903.000,V,,,,,,,031099,,,N*4E
$GPGGA,182904.000,,,,,0,00,,,,,,,*7E
$GPRMC,182904.000,V,,,,,,,031099,,,N*49
$GPGGA,182905.000,,,,,0,00,,,,,,,*7F
$GPRMC,182905.000,V,,,,,,,031099,,,N*48
$GPGGA,182906.000,,,,,0,00,,,,,,,*7C
$GPRMC,182906.000,V,,,,,,,031099,,,N*4B
$GPGGA,182907.000,,,,,0,00,,,,,,,*7D
$GPRMC,182907.000,V,,,,,,,031099,,,N*4A
$GPGGA,182908.000,,,,,0,00,,,,,,,*72
$GPRMC,182908.000,V,,,,,,,031099,,,N*45
$GPGGA,182909.000,,,,,0,00,,,,,,,*73
$GPRMC,182909.000,V,,,,,,,031099,,,N*44
$GPGGA,182910.000,,,,,0,00,,,,,,,*7B
$GPRMC,182910.000,V,,,,,,,031099,,,N*4C
$GPGGA,182911.000,,,,,0,00,,,,,,,*7A
$GPRMC,182911.000,V,,,,,,,031099,,,N*4D
$GPGGA,182912.000,,,,,0,00,,,,,,,*79
$GPRMC,182912.000,V,,,,,,,031099,,,N*4E
$GPGGA,182913.000,,,,,0,00,,,,,,,*78
$GPRMC,182913.000,V,,,,,,,031099,,,N*4F
$GPGGA,182914.000,,,,,0,00,,,,,,,*7F
$GPRMC,182914.000,V,,,,,,,031099,,,N*48
$GPGGA,182915.000,,,,,0,00,,,,,,,*7E
$GPRMC,182915.000,V,,,,,,,031099,,,N*49
$GPGGA,182916.000,,,,,0,00,,,,,,,*7D
$GPRMC,182916.000,V,,,,,,,031099,,,N*4A
$GPGGA,182917.000,,,,,0,00,,,,,,,*7C
$GPRMC,182917.000,V,,,,,,,031099,,,N*4B
$GPGGA,182918.000,,,,,0,00,,,,,,,*73
$GPRMC,182918.000,V,,,,,,,031099,,,N*44
$GPGGA,182919.000,,,,,0,00,,,,,,,*72
$GPRMC,182919.000,V,,,,,,,031099,,,N*45
$GPGGA,182920.000,,,,,0,00,,,,,,,*78
$GPRMC,182920.000,V,,,,,,,031099,,,N*4F
$GPGGA,182921.000,,,,,0,00,,,,,,,*79
$GPRMC,182921.000,V,,,,,,,031099,,,N*4E
$GPGGA,182922.000,,,,,0,00,,,,,,,*7A
$GPRMC,182922.000,V,,,,,,,031099,,,N*4D
$GPGGA,182923.000,,,,,0,00,,,,,,,*7B
$GPRMC,182923.000,V,,,,,,,031099,,,N*4C
$GPGGA,182924.000,,,,,0,00,,,,,,,*7C
$GPRMC,182924.000,V,,,,,,,031099,,,N*4B
$GPGGA,182925.000,,,,,0,00,,,,,,,*7D
$GPRMC,182925.000,V,,,,,,,031099,,,N*4A
$GPGGA,182926.000,,,,,0,00,,,,,,,*7E
$GPRMC,182926.000,V,,,,,,,031099,,,N*49
$GPGGA,182927.000,,,,,0,00,,,,,,,*7F
$GPRMC,182927.000,V,,,,,,,031099,,,N*48
$GPGGA,182928.000,,,,,0,00,,,,,,,*70
$GPRMC,182928.000,V,,,,,,,031099,,,N*47
$GPGGA,182929.000,,,,,0,00,,,,,,,*71
$GPRMC,182929.000,V,,,,,,,031099,,,N*46
$GPGGA,182930.000,,,,,0,00,,,,,,,*79
$GPRMC,182930.000,V,,,,,,,031099,,,N*4E
$GPGGA,182931.000,,,,,0,00,,,,,,,*78
$GPRMC,182931.000,V,,,,,,,031099,,,N*4F
$GPGGA,182932.000,,,,,0,00,,,,,,,*7B
$GPRMC,182932.000,V,,,,,,,031099,,,N*4C
$GPGGA,182933.000,,,,,0,00,,,,,,,*7A
$GPRMC,182933.000,V,,,,,,,031099,,,N*4D
$GPGGA,182934.000,,,,,0,00,,,,,,,*7D
$GPRMC,182934.000,V,,,,,,,031099,,,N*4A
$GPGGA,182935.000,,,,,0,00,,,,,,,*7C
$GPRMC,182935.000,V,,,,,,,031099,,,N*4B
$GPGGA,182936.000,,,,,0,00,,,,,,,*7F
$GPRMC,182936.000,V,,,,,,,031099,,,N*48
$GPGGA,182937.000,,,,,0,00,,,,,,,*7E
$GPRMC,182937.000,V,,,,,,,031099,,,N*49
$GPGGA,182938.000,,,,,0,00,,,,,,,*71
$GPRMC,182938.000,V,,,,,,,031099,,,N*46
$GPGGA,182939.000,,,,,0,00,,,,,,,*70
$GPRMC,182939.000,V,,,,,,,031099,,,N*47
$GPGGA,182940.000,,,,,0,00,,,,,,,*7E
$GPRMC,182940.000,V,,,,,,,031099,,,N*49
$GPGGA,182941.000,,,,,0,00,,,,,,,*7F
$GPRMC,182941.000,V,,,,,,,031099,,,N*48
$GPGGA,182942.000,,,,,0,00,,,,,,,*7C
$GPRMC,182942.000,V,,,,,,,031099,,,N*4B
$GPGGA,182943.000,,,,,0,00,,,,,,,*7D
$GPRMC,182943.000,V,,,,,,,031099,,,N*4A
$GPGGA,182944.000,,,,,0,00,,,,,,,*7A
$GPRMC,182944.000,V,,,,,,,031099,,,N*4D
$GPGGA,182945.000,,,,,0,00,,,,,,,*7B
$GPRMC,182945.000,V,,,,,,,031099,,,N*4C
$GPGGA,182946.000,,,,,0,00,,,,,,,*78
$GPRMC,182946.000,V,,,,,,,031099,,,N*4F
$GPGGA,182947.000,,,,,0,00,,,,,,,*79
$GPRMC,182947.000,V,,,,,,,031099,,,N*4E
$GPGGA,182948.000,,,,,0,00,,,,,,,*76
$GPRMC,182948.000,V,,,,,,,031099,,,N*41
$GPGGA,182949.000,,,,,0,00,,,,,,,*77
$GPRMC,182949.000,V,,,,,,,031099,,,N*40
$GPGGA,182950.000,,,,,0,00,,,,,,,*7F
$GPRMC,182950.000,V,,,,,,,031099,,,N*48
$GPGGA,182951.000,,,,,0,00,,,,,,,*7E
$GPRMC,182951.000,V,,,,,,,031099,,,N*49
$GPGGA,182952.000,,,,,0,00,,,,,,,*7D
$GPRMC,182952.000,V,,,,,,,031099,,,N*4A
$GPGGA,182953.000,,,,,0,00,,,,,,,*7C
$GPRMC,182953.000,V,,,,,,,031099,,,N*4B
$GPGGA,182954.000,,,,,0,00,,,,,,,*7B
$GPRMC,182954.000,V,,,,,,,031099,,,N*4C
$GPGGA,182955.000,,,,,0,00,,,,,,,*7A
$GPRMC,182955.000,V,,,,,,,031099,,,N*4D
$GPGGA,182956.000,,,,,0,00,,,,,,,*79
$GPRMC,182956.000,V,,,,,,,031099,,,N*4E
$GPGGA,182957.000,,,,,0,00,,,,,,,*78
$GPRMC,182957.000,V,,,,,,,031099,,,N*4F
$GPGGA,182958.000,,,,,0,00,,,,,,,*77
$GPRMC,182958.000,V,,,,,,,031099,,,N*40
$GPGGA,182959.000,,,,,0,00,,,,,,,*76
$GPRMC,182959.000,V,,,,,,,031099,,,N*41
$GPGGA,183000.000,,,,,0,00,,,,,,,*72
$GPRMC,183000.000,V,,,,,,,031099,,,N*45
$GPGGA,183001.000,,,,,0,00,,,,,,,*73
$GPRMC,183001.000,V,,,,,,,031099,,,N*44
$GPGGA,183002.000,,,,,0,00,,,,,,,*70
$GPRMC,183002.000,V,,,,,,,031099,,,N*47
$GPGGA,183003.000,,,,,0,00,,,,,,,*71
$GPRMC,183003.000,V,,,,,,,031099,,,N*46
$GPGGA,183004.000,,,,,0,00,,,,,,,*76
$GPRMC,183004.000,V,,,,,,,031099,,,N*41
$GPGGA,183005.000,,,,,0,00,,,,,,,*77
$GPRMC,183005.000,V,,,,,,,031099,,,N*40
$GPGGA,183006.000,,,,,0,00,,,,,,,*74
$GPRMC,183006.000,V,,,,,,,031099,,,N*43
$GPGGA,183007.000,,,,,0,00,,,,,,,*75
$GPRMC,183007.000,V,,,,,,,031099,,,N*42
$GPGGA,183008.000,,,,,0,00,,,,,,,*7A
$GPRMC,183008.000,V,,,,,,,031099,,,N*4D
$GPGGA,183009.000,,,,,0,00,,,,,,,*7B
$GPRMC,183009.000,V,,,,,,,031099,,,N*4C
$GPGGA,183010.000,,,,,0,00,,,,,,,*73
$GPRMC,183010.000,V,,,,,,,031099,,,N*44
$GPGGA,183011.000,,,,,0,00,,,,,,,*72
$GPRMC,183011.000,V,,,,,,,031099,,,N*45
$GPGGA,183012.000,,,,,0,00,,,,,,,*71
$GPRMC,183012.000,V,,,,,,,031099,,,N*46
$GPGGA,183013.000,,,,,0,00,,,,,,,*70
$GPRMC,183013.000,V,,,,,,,031099,,,N*47
$GPGGA,183014.000,,,,,0,00,,,,,,,*77
$GPRMC,183014.000,V,,,,,,,031099,,,N*40
$GPGGA,183015.000,,,,,0,00,,,,,,,*76
$GPRMC,183015.000,V,,,,,,,031099,,,N*41
$GPGGA,183016.000,,,,,0,00,,,,,,,*75
$GPRMC,183016.000,V,,,,,,,031099,,,N*42
$GPGGA,183017.000,,,,,0,00,,,,,,,*74
$GPRMC,183017.000,V,,,,,,,031099,,,N*43
$GPGGA,183018.000,,,,,0,00,,,,,,,*7B
$GPRMC,183018.000,V,,,,,,,031099,,,N*4C
$GPGGA,183019.000,,,,,0,00,,,,,,,*7A
$GPRMC,183019.000,V,,,,,,,031099,,,N*4D
$GPGGA,183020.000,,,,,0,00,,,,,,,*70
$GPRMC,183020.000,V,,,,,,,031099,,,N*47
$GPGGA,183021.000,,,,,0,00,,,,,,,*71
$GPRMC,183021.000,V,,,,,,,031099,,,N*46
$GPGGA,183022.000,,,,,0,00,,,,,,,*72
$GPRMC,183022.000,V,,,,,,,031099,,,N*45
$GPGGA,183023.000,,,,,0,00,,,,,,,*73
$GPRMC,183023.000,V,,,,,,,031099,,,N*44
$GPGGA,183024.000,,,,,0,00,,,,,,,*74
$GPRMC,183024.000,V,,,,,,,031099,,,N*43
$GPGGA,183025.000,,,,,0,00,,,,,,,*75
$GPRMC,183025.000,V,,,,,,,031099,,,N*42
$GPGGA,183026.000,,,,,0,00,,,,,,,*76
$GPRMC,183026.000,V,,,,,,,031099,,,N*41
$GPGGA,183027.000,,,,,0,00,,,,,,,*77
$GPRMC,183027.000,V,,,,,,,031099,,,N*40
$GPGGA,183028.000,,,,,0,00,,,,,,,*78
$GPRMC,183028.000,V,,,,,,,031099,,,N*4F
$GPGGA,183029.000,,,,,0,00,,,,,,,*79
$GPRMC,183029.000,V,,,,,,,031099,,,N*4E
$GPGGA,183030.000,,,,,0,00,,,,,,,*71
$GPRMC,183030.000,V,,,,,,,031099,,,N*46
$GPGGA,183031.000,,,,,0,00,,,,,,,*70
$GPRMC,183031.000,V,,,,,,,031099,,,N*47
$GPGGA,183032.000,,,,,0,00,,,,,,,*73
$GPRMC,183032.000,V,,,,,,,031099,,,N*44
$GPGGA,183033.000,,,,,0,00,,,,,,,*72
$GPRMC,183033.000,V,,,,,,,031099,,,N*45
$GPGGA,183034.000,,,,,0,00,,,,,,,*75
$GPRMC,183034.000,V,,,,,,,031099,,,N*42
$GPGGA,183035.000,,,,,0,00,,,,,,,*74
$GPRMC,183035.000,V,,,,,,,031099,,,N*43
$GPGGA,183036.000,,,,,0,00,,,,,,,*77
$GPRMC,183036.000,V,,,,,,,031099,,,N*40
$GPGGA,183037.000,,,,,0,00,,,,,,,*76
$GPRMC,183037.000,V,,,,,,,031099,,,N*41
$GPGGA,183038.000,,,,,0,00,,,,,,,*79
$GPRMC,183038.000,V,,,,,,,031099,,,N*4E
$GPGGA,183039.000,,,,,0,00,,,,,,,*78
$GPRMC,183039.000,V,,,,,,,031099,,,N*4F
$GPGGA,183040.000,,,,,0,00,,,,,,,*76
$GPRMC,183040.000,V,,,,,,,031099,,,N*41
$GPGGA,183041.000,,,,,0,00,,,,,,,*77
$GPRMC,183041.000,V,,,,,,,031099,,,N*40
$GPGGA,183042.000,,,,,0,00,,,,,,,*74
$GPRMC,183042.000,V,,,,,,,031099,,,N*43
$GPGGA,183043.000,,,,,0,00,,,,,,,*75
$GPRMC,183043.000,V,,,,,,,031099,,,N*42
$GPGGA,183044.000,,,,,0,00,,,,,,,*72
$GPRMC,183044.000,V,,,,,,,031099,,,N*45
$GPGGA,183045.000,,,,,0,00,,,,,,,*73
$GPRMC,183045.000,V,,,,,,,031099,,,N*44
$GPGGA,183046.000,,,,,0,00,,,,,,,*70
$GPRMC,183046.000,V,,,,,,,031099,,,N*47
$GPGGA,183047.000,,,,,0,00,,,,,,,*71
$GPRMC,183047.000,V,,,,,,,031099,,,N*46
$GPGGA,183048.000,,,,,0,00,,,,,,,*7E
$GPRMC,183048.000,V,,,,,,,031099,,,N*49
$GPGGA,183049.000,,,,,0,00,,,,,,,*7F
$GPRMC,183049.000,V,,,,,,,031099,,,N*48
$GPGGA,183050.000,,,,,0,00,,,,,,,*77
$GPRMC,183050.000,V,,,,,,,031099,,,N*40
$GPGGA,183051.000,,,,,0,00,,,,,,,*76
$GPRMC,183051.000,V,,,,,,,031099,,,N*41
$GPGGA,183052.000,,,,,0,00,,,,,,,*75
$GPRMC,183052.000,V,,,,,,,031099,,,N*42
$GPGGA,183053.000,,,,,0,00,,,,,,,*74
$GPRMC,183053.000,V,,,,,,,031099,,,N*43
$GPGGA,183054.000,,,,,0,00,,,,,,,*73
$GPRMC,183054.000,V,,,,,,,031099,,,N*44
$GPGGA,183055.000,,,,,0,00,,,,,,,*72
$GPRMC,183055.000,V,,,,,,,031099,,,N*45
$GPGGA,183056.000,,,,,0,00,,,,,,,*71
$GPRMC,183056.000,V,,,,,,,031099,,,N*46
$GPGGA,183057.000,,,,,0,00,,,,,,,*70
$GPRMC,183057.000,V,,,,,,,031099,,,N*47
$GPGGA,183058.000,,,,,0,00,,,,,,,*7F
$GPRMC,183058.000,V,,,,,,,031099,,,N*48
$GPGGA,183059.000,,,,,0,00,,,,,,,*7E
$GPRMC,183059.000,V,,,,,,,031099,,,N*49
$GPGGA,183100.000,,,,,0,00,,,,,,,*73
$GPRMC,183100.000,V,,,,,,,031099,,,N*44
$GPGGA,183101.000,,,,,0,00,,,,,,,*72
$GPRMC,183101.000,V,,,,,,,031099,,,N*45
$GPGGA,183102.000,,,,,0,00,,,,,,,*71
$GPRMC,183102.000,V,,,,,,,031099,,,N*46
$GPGGA,183103.000,,,,,0,00,,,,,,,*70
$GPRMC,183103.000,V,,,,,,,031099,,,N*47
$GPGGA,183104.000,,,,,0,00,,,,,,,*77
$GPRMC,183104.000,V,,,,,,,031099,,,N*40
$GPGGA,183105.000,,,,,0,00,,,,,,,*76
$GPRMC,183105.000,V,,,,,,,031099,,,N*41
$GPGGA,183106.000,,,,,0,00,,,,,,,*75
$GPRMC,183106.000,V,,,,,,,031099,,,N*42
$GPGGA,183107.000,,,,,0,00,,,,,,,*74
$GPRMC,183107.000,V,,,,,,,031099,,,N*43
$GPGGA,183108.000,,,,,0,00,,,,,,,*7B
$GPRMC,183108.000,V,,,,,,,031099,,,N*4C
$GPGGA,183109.000,,,,,0,00,,,,,,,*7A
$GPRMC,183109.000,V,,,,,,,031099,,,N*4D
$GPGGA,183110.000,,,,,0,00,,,,,,,*72
$GPRMC,183110.000,V,,,,,,,031099,,,N*45
$GPGGA,183111.000,,,,,0,00,,,,,,,*73
$GPRMC,183111.000,V,,,,,,,031099,,,N*44
$GPGGA,183112.000,,,,,0,00,,,,,,,*70
$GPRMC,183112.000,V,,,,,,,031099,,,N*47
$GPGGA,183113.000,,,,,0,00,,,,,,,*71
$GPRMC,183113.000,V,,,,,,,031099,,,N*46
$GPGGA,183114.000,,,,,0,00,,,,,,,*76
$GPRMC,183114.000,V,,,,,,,031099,,,N*41
$GPGGA,183115.000,,,,,0,00,,,,,,,*77
$GPRMC,183115.000,V,,,,,,,031099,,,N*40
$GPGGA,183116.000,,,,,0,00,,,,,,,*74
$GPRMC,183116.000,V,,,,,,,031099,,,N*43
$GPGGA,183117.000,,,,,0,00,,,,,,,*75
$GPRMC,183117.000,V,,,,,,,031099,,,N*42
$GPGGA,183118.000,,,,,0,00,,,,,,,*7A
$GPRMC,183118.000,V,,,,,,,031099,,,N*4D
$GPGGA,183119.000,,,,,0,00,,,,,,,*7B
$GPRMC,183119.000,V,,,,,,,031099,,,N*4C
$GPGGA,183120.000,,,,,0,00,,,,,,,*71
$GPRMC,183120.000,V,,,,,,,031099,,,N*46
$GPGGA,183121.000,,,,,0,00,,,,,,,*70
$GPRMC,183121.000,V,,,,,,,031099,,,N*47
$GPGGA,183122.000,,,,,0,00,,,,,,,*73
$GPRMC,183122.000,V,,,,,,,031099,,,N*44
$GPGGA,183123.000,,,,,0,00,,,,,,,*72
$GPRMC,183123.000,V,,,,,,,031099,,,N*45
$GPGGA,183124.000,,,,,0,00,,,,,,,*75
$GPRMC,183124.000,V,,,,,,,031099,,,N*42
$GPGGA,183125.000,,,,,0,00,,,,,,,*74
$GPRMC,183125.000,V,,,,,,,031099,,,N*43
$GPGGA,183126.000,,,,,0,00,,,,,,,*77
$GPRMC,183126.000,V,,,,,,,031099,,,N*40
$GPGGA,183127.000,,,,,0,00,,,,,,,*76
$GPRMC,183127.000,V,,,,,,,031099,,,N*41
$GPGGA,183128.000,,,,,0,00,,,,,,,*79
$GPRMC,183128.000,V,,,,,,,031099,,,N*4E
$GPGGA,183128.994,4717.2284,N,01122.5275,E,1,04,2.5,399.56,M,41.34,M,,*54
$GPRMC,183128.994,A,4717.2284,N,01122.5275,E,1.1,229.9,031099,,,A*65
$GPGGA,183130.000,4717.2290,N,01122.5196,E,1,04,2.5,400.24,M,41.34,M,,*50
$GPRMC,183130.000,A,4717.2290,N,01122.5196,E,0.0,229.9,031099,,,A*63
$GPGGA,183131.000,4717.2290,N,01122.5196,E,1,04,2.5,400.24,M,41.34,M,,*51
$GPRMC,183131.000,A,4717.2290,N,01122.5196,E,0.0,229.9,031099,,,A*62
$GPGGA,183132.000,4717.2290,N,01122.5196,E,1,04,2.5,400.24,M,41.34,M,,*52
$GPRMC,183132.000,A,4717.2290,N,01122.5196,E,0.0,229.9,031099,,,A*61
$GPGGA,183133.000,4717.2290,N,01122.5196,E,1,04,2.5,400.24,M,41.34,M,,*53
$GPRMC,183133.000,A,4717.2290,N,01122.5196,E,0.0,229.9,031099,,,A*60
$GPGGA,183134.000,4717.2290,N,01122.5196,E,1,04,2.5,400.24,M,41.34,M,,*54
$GPRMC,183134.000,A,4717.2290,N,01122.5196,E,0.0,229.9,031099,,,A*67
$GPGGA,183135.000,4717.2290,N,01122.5196,E,1,04,2.5,400.24,M,41.34,M,,*55
$GPRMC,183135.000,A,4717.2290,N,01122.5196,E,0.0,229.9,031099,,,A*66
$GPGGA,183136.000,4717.2290,N,01122.5196,E,1,04,2.5,400.24,M,41.34,M,,*56
$GPRMC,183136.000,A,4717.2290,N,01122.5196,E,0.0,229.9,031099,,,A*65
$GPGGA,183137.000,4717.2290,N,01122.5196,E,1,04,2.5,400.24,M,41.34,M,,*57
$GPRMC,183137.000,A,4717.2290,N,01122.5196,E,0.0,229.9,031099,,,A*64
$GPGGA,183138.000,4717.2290,N,01122.5196,E,1,04,2.5,400.24,M,41.34,M,,*58
$GPRMC,183138.000,A,4717.2290,N,01122.5196,E,0.0,229.9,031099,,,A*6B
$GPGGA,183139.000,4717.2288,N,01122.5289,E,1,04,2.5,405.68,M,41.34,M,,*50
$GPRMC,183139.000,A,4717.2288,N,01122.5289,E,0.0,229.9,031099,,,A*6E
$GPGGA,183140.000,4717.2288,N,01122.5289,E,1,04,2.5,405.68,M,41.34,M,,*5E
$GPRMC,183140.000,A,4717.2288,N,01122.5289,E,0.0,229.9,031099,,,A*60
$GPGGA,183141.000,4717.2288,N,01122.5289,E,1,04,2.5,405.68,M,41.34,M,,*5F
$GPRMC,183141.000,A,4717.2288,N,01122.5289,E,0.0,229.9,031099,,,A*61
$GPGGA,183142.000,4717.2288,N,01122.5289,E,1,04,2.5,405.68,M,41.34,M,,*5C
$GPRMC,183142.000,A,4717.2288,N,01122.5289,E,0.0,229.9,031099,,,A*62
$GPGGA,183143.000,4717.2288,N,01122.5289,E,1,04,2.5,405.68,M,41.34,M,,*5D
$GPRMC,183143.000,A,4717.2288,N,01122.5289,E,0.0,229.9,031099,,,A*63
$GPGGA,183144.000,4717.2288,N,01122.5289,E,1,04,2.5,405.68,M,41.34,M,,*5A
$GPRMC,183144.000,A,4717.2288,N,01122.5289,E,0.0,229.9,031099,,,A*64
$GPGGA,183145.000,4717.2288,N,01122.5289,E,1,04,2.5,405.68,M,41.34,M,,*5B
$GPRMC,183145.000,A,4717.2288,N,01122.5289,E,0.0,229.9,031099,,,A*65
$GPGGA,183146.000,4717.2288,N,01122.5289,E,1,04,2.5,405.68,M,41.34,M,,*58
$GPRMC,183146.000,A,4717.2288,N,01122.5289,E,0.0,229.9,031099,,,A*66
$GPGGA,183147.000,4717.2288,N,01122.5289,E,1,04,2.5,405.68,M,41.34,M,,*59
$GPRMC,183147.000,A,4717.2288,N,01122.5289,E,0.0,229.9,031099,,,A*67
$GPGGA,183148.000,4717.2288,N,01122.5289,E,1,04,2.5,405.68,M,41.34,M,,*56
$GPRMC,183148.000,A,4717.2288,N,01122.5289,E,0.0,229.9,031099,,,A*68
$GPGGA,183149.000,4717.2288,N,01122.5289,E,1,04,2.5,405.68,M,41.34,M,,*57
$GPRMC,183149.000,A,4717.2288,N,01122.5289,E,0.0,229.9,031099,,,A*69
$GPGGA,183150.000,4717.2288,N,01122.5289,E,1,04,2.5,405.68,M,41.34,M,,*5F
$GPRMC,183150.000,A,4717.2288,N,01122.5289,E,0.0,229.9,031099,,,A*61
$GPGGA,183151.000,4717.2288,N,01122.5289,E,1,04,2.5,405.68,M,41.34,M,,*5E
$GPRMC,183151.000,A,4717.2288,N,01122.5289,E,0.0,229.9,031099,,,A*60
$GPGGA,183152.000,4717.2288,N,01122.5289,E,1,04,2.5,405.68,M,41.34,M,,*5D
$GPRMC,183152.000,A,4717.2288,N,01122.5289,E,0.0,229.9,031099,,,A*63
$GPGGA,183153.000,4717.2288,N,01122.5289,E,1,04,2.5,405.68,M,41.34,M,,*5C
$GPRMC,183153.000,A,4717.2288,N,01122.5289,E,0.0,229.9,031099,,,A*62
$GPGGA,183154.000,4717.2288,N,01122.5289,E,1,04,2.5,405.68,M,41.34,M,,*5B
$GPRMC,183154.000,A,4717.2288,N,01122.5289,E,0.0,229.9,031099,,,A*65
$GPGGA,183155.000,4717.2288,N,01122.5289,E,1,04,2.5,405.68,M,41.34,M,,*5A
$GPRMC,183155.000,A,4717.2288,N,01122.5289,E,0.0,229.9,031099,,,A*64
$GPGGA,183156.000,4717.2288,N,01122.5289,E,1,04,2.5,405.68,M,41.34,M,,*59
$GPRMC,183156.000,A,4717.2288,N,01122.5289,E,0.0,229.9,031099,,,A*67
$GPGGA,183157.000,4717.2288,N,01122.5289,E,1,04,2.5,405.68,M,41.34,M,,*58
$GPRMC,183157.000,A,4717.2288,N,01122.5289,E,0.0,229.9,031099,,,A*66
$GPGGA,183158.000,4717.2288,N,01122.5289,E,1,04,2.5,405.68,M,41.34,M,,*57
$GPRMC,183158.000,A,4717.2288,N,01122.5289,E,0.0,229.9,031099,,,A*69
$GPGGA,183159.000,4717.2288,N,01122.5289,E,1,04,2.5,405.68,M,41.34,M,,*56
$GPRMC,183159.000,A,4717.2288,N,01122.5289,E,0.0,229.9,031099,,,A*68
$GPGGA,183200.000,4717.2288,N,01122.5289,E,1,04,2.5,405.68,M,41.34,M,,*59
$GPRMC,183200.000,A,4717.2288,N,01122.5289,E,0.0,229.9,031099,,,A*67
$GPGGA,183201.000,4717.2288,N,01122.5289,E,1,06,1.4,405.68,M,41.34,M,,*58
$GPRMC,183201.000,A,4717.2288,N,01122.5289,E,0.0,229.9,031099,,,A*66
$GPGGA,183202.000,4717.2288,N,01122.5289,E,1,06,1.4,405.68,M,41.34,M,,*5B
$GPRMC,183202.000,A,4717.2288,N,01122.5289,E,0.0,229.9,031099,,,A*65
$GPGGA,183203.000,4717.2288,N,01122.5289,E,1,06,1.4,405.68,M,41.34,M,,*5A
$GPRMC,183203.000,A,4717.2288,N,01122.5289,E,0.0,229.9,031099,,,A*64
$GPGGA,183204.000,4717.2288,N,01122.5289,E,1,06,1.4,405.68,M,41.34,M,,*5D
$GPRMC,183204.000,A,4717.2288,N,01122.5289,E,0.0,229.9,031099,,,A*63
$GPGGA,183205.000,4717.2288,N,01122.5289,E,1,06,1.4,405.68,M,41.34,M,,*5C
$GPRMC,183205.000,A,4717.2288,N,01122.5289,E,0.0,229.9,031099,,,A*62
$GPGGA,183206.000,4717.2288,N,01122.5289,E,1,06,1.4,405.68,M,41.34,M,,*5F
$GPRMC,183206.000,A,4717.2288,N,01122.5289,E,0.0,229.9,031099,,,A*61
$GPGGA,183207.000,4717.2288,N,01122.5289,E,1,06,1.4,405.68,M,41.34,M,,*5E
$GPRMC,183207.000,A,4717.2288,N,01122.5289,E,0.0,229.9,031099,,,A*60
$GPGGA,183208.000,4717.2288,N,01122.5289,E,1,06,1.4,405.68,M,41.34,M,,*51
$GPRMC,183208.000,A,4717.2288,N,01122.5289,E,0.0,229.9,031099,,,A*6F
$GPGGA,183209.000,4717.2288,N,01122.5289,E,1,06,1.4,405.68,M,41.34,M,,*50
$GPRMC,183209.000,A,4717.2288,N,01122.5289,E,0.0,229.9,031099,,,A*6E
$GPGGA,183210.000,4717.2288,N,01122.5289,E,1,06,1.4,405.68,M,41.34,M,,*58
$GPRMC,183210.000,A,4717.2288,N,01122.5289,E,0.0,229.9,031099,,,A*66
$GPGGA,183211.000,4717.2262,N,01122.5456,E,1,06,1.4,452.13,M,41.34,M,,*57
$GPRMC,183211.000,A,4717.2262,N,01122.5456,E,0.4,058.0,031099,,,A*6E
$GPGGA,183212.000,4717.2263,N,01122.5458,E,1,06,1.4,453.15,M,41.34,M,,*5C
$GPRMC,183212.000,A,4717.2263,N,01122.5458,E,0.0,058.0,031099,,,A*66
$GPGGA,183213.000,4717.2263,N,01122.5458,E,1,06,1.4,453.15,M,41.34,M,,*5D
$GPRMC,183213.000,A,4717.2263,N,01122.5458,E,0.0,058.0,031099,,,A*67
$GPGGA,183214.000,4717.2263,N,01122.5458,E,1,06,1.4,453.15,M,41.34,M,,*5A
$GPRMC,183214.000,A,4717.2263,N,01122.5458,E,0.0,058.0,031099,,,A*60
$GPGGA,183215.000,4717.2263,N,01122.5458,E,1,06,1.4,453.15,M,41.34,M,,*5B
$GPRMC,183215.000,A,4717.2263,N,01122.5458,E,0.0,058.0,031099,,,A*61
$GPGGA,183216.000,4717.2263,N,01122.5458,E,1,06,1.4,453.15,M,41.34,M,,*58
$GPRMC,183216.000,A,4717.2263,N,01122.5458,E,0.0,058.0,031099,,,A*62
$GPGGA,183217.000,4717.2263,N,01122.5458,E,1,06,1.4,453.15,M,41.34,M,,*59
$GPRMC,183217.000,A,4717.2263,N,01122.5458,E,0.0,058.0,031099,,,A*63
$GPGGA,183218.000,4717.2263,N,01122.5458,E,1,06,1.4,453.15,M,41.34,M,,*56
$GPRMC,183218.000,A,4717.2263,N,01122.5458,E,0.0,058.0,031099,,,A*6C
$GPGGA,183219.000,4717.2263,N,01122.5458,E,1,06,1.4,453.15,M,41.34,M,,*57
$GPRMC,183219.000,A,4717.2263,N,01122.5458,E,0.0,058.0,031099,,,A*6D
$GPGGA,183220.000,4717.2263,N,01122.5458,E,1,06,1.4,453.15,M,41.34,M,,*5D
$GPRMC,183220.000,A,4717.2263,N,01122.5458,E,0.0,058.0,031099,,,A*67
$GPGGA,183221.000,4717.2263,N,01122.5458,E,1,06,1.4,453.15,M,41.34,M,,*5C
$GPRMC,183221.000,A,4717.2263,N,01122.5458,E,0.0,058.0,031099,,,A*66
$GPGGA,183222.000,4717.2263,N,01122.5458,E,1,06,1.4,453.15,M,41.34,M,,*5F
$GPRMC,183222.000,A,4717.2263,N,01122.5458,E,0.0,058.0,031099,,,A*65
$GPGGA,183223.000,4717.2263,N,01122.5458,E,1,06,1.4,453.15,M,41.34,M,,*5E
$GPRMC,183223.000,A,4717.2263,N,01122.5458,E,0.0,058.0,031099,,,A*64
$GPGGA,183224.000,4717.2263,N,01122.5458,E,1,06,1.4,453.15,M,41.34,M,,*59
$GPRMC,183224.000,A,4717.2263,N,01122.5458,E,0.0,058.0,031099,,,A*63
$GPGGA,183225.000,4717.2263,N,01122.5458,E,1,07,1.2,453.15,M,41.34,M,,*5F
$GPRMC,183225.000,A,4717.2263,N,01122.5458,E,0.0,058.0,031099,,,A*62
$GPGGA,183226.000,4717.2263,N,01122.5458,E,1,07,1.2,453.15,M,41.34,M,,*5C
$GPRMC,183226.000,A,4717.2263,N,01122.5458,E,0.0,058.0,031099,,,A*61
$GPGGA,183227.000,4717.2263,N,01122.5458,E,1,07,1.2,453.15,M,41.34,M,,*5D
$GPRMC,183227.000,A,4717.2263,N,01122.5458,E,0.0,058.0,031099,,,A*60
$GPGGA,183228.000,4717.2263,N,01122.5458,E,1,07,1.2,453.15,M,41.34,M,,*52
$GPRMC,183228.000,A,4717.2263,N,01122.5458,E,0.0,058.0,031099,,,A*6F
$GPGGA,183229.000,4717.2263,N,01122.5458,E,1,07,1.2,453.15,M,41.34,M,,*53
$GPRMC,183229.000,A,4717.2263,N,01122.5458,E,0.0,058.0,031099,,,A*6E
$GPGGA,183230.000,4717.2263,N,01122.5458,E,1,07,1.2,453.15,M,41.34,M,,*5B
$GPRMC,183230.000,A,4717.2263,N,01122.5458,E,0.0,058.0,031099,,,A*66
$GPGGA,183231.000,4717.2263,N,01122.5458,E,1,07,1.2,453.15,M,41.34,M,,*5A
$GPRMC,183231.000,A,4717.2263,N,01122.5458,E,0.0,058.0,031099,,,A*67
$GPGGA,183232.000,4717.2263,N,01122.5458,E,1,07,1.2,453.15,M,41.34,M,,*59
$GPRMC,183232.000,A,4717.2263,N,01122.5458,E,0.0,058.0,031099,,,A*64
$GPGGA,183233.000,4717.2263,N,01122.5458,E,1,07,1.2,453.15,M,41.34,M,,*58
$GPRMC,183233.000,A,4717.2263,N,01122.5458,E,0.0,058.0,031099,,,A*65
$GPGGA,183234.000,4717.2263,N,01122.5458,E,1,07,1.2,453.15,M,41.34,M,,*5F
$GPRMC,183234.000,A,4717.2263,N,01122.5458,E,0.0,058.0,031099,,,A*62
$GPGGA,183235.000,4717.2263,N,01122.5458,E,1,07,1.2,453.15,M,41.34,M,,*5E
$GPRMC,183235.000,A,4717.2263,N,01122.5458,E,0.0,058.0,031099,,,A*63
$GPGGA,183236.000,4717.2263,N,01122.5458,E,1,07,1.2,453.15,M,41.34,M,,*5D
$GPRMC,183236.000,A,4717.2263,N,01122.5458,E,0.0,058.0,031099,,,A*60
$GPGGA,183237.000,4717.2263,N,01122.5458,E,1,07,1.2,453.15,M,41.34,M,,*5C
$GPRMC,183237.000,A,4717.2263,N,01122.5458,E,0.0,058.0,031099,,,A*61
$GPGGA,183238.000,4717.2263,N,01122.5458,E,1,07,1.2,453.15,M,41.34,M,,*53
$GPRMC,183238.000,A,4717.2263,N,01122.5458,E,0.0,058.0,031099,,,A*6E
$GPGGA,183239.000,4717.2263,N,01122.5458,E,1,07,1.2,453.15,M,41.34,M,,*52
$GPRMC,183239.000,A,4717.2263,N,01122.5458,E,0.0,058.0,031099,,,A*6F
$GPGGA,183240.000,4717.2263,N,01122.5458,E,1,07,1.2,453.15,M,41.34,M,,*5C
$GPRMC,183240.000,A,4717.2263,N,01122.5458,E,0.0,058.0,031099,,,A*61
$GPGGA,183241.000,4717.2263,N,01122.5458,E,1,07,1.2,453.15,M,41.34,M,,*5D
$GPRMC,183241.000,A,4717.2263,N,01122.5458,E,0.0,058.0,031099,,,A*60
$GPGGA,183242.000,4717.2263,N,01122.5458,E,1,07,1.2,453.15,M,41.34,M,,*5E
$GPRMC,183242.000,A,4717.2263,N,01122.5458,E,0.0,058.0,031099,,,A*63
$GPGGA,183243.000,4717.2263,N,01122.5458,E,1,07,1.2,453.15,M,41.34,M,,*5F
$GPRMC,183243.000,A,4717.2263,N,01122.5458,E,0.0,058.0,031099,,,A*62
$GPGGA,183244.000,4717.2263,N,01122.5458,E,1,07,1.2,453.15,M,41.34,M,,*58
$GPRMC,183244.000,A,4717.2263,N,01122.5458,E,0.0,058.0,031099,,,A*65
$GPGGA,183245.000,4717.2263,N,01122.5458,E,1,07,1.2,453.15,M,41.34,M,,*59
$GPRMC,183245.000,A,4717.2263,N,01122.5458,E,0.0,058.0,031099,,,A*64
$GPGGA,183246.000,4717.2263,N,01122.5458,E,1,07,1.2,453.15,M,41.34,M,,*5A
$GPRMC,183246.000,A,4717.2263,N,01122.5458,E,0.0,058.0,031099,,,A*67
$GPGGA,183247.000,4717.2263,N,01122.5458,E,1,07,1.2,453.15,M,41.34,M,,*5B
$GPRMC,183247.000,A,4717.2263,N,01122.5458,E,0.0,058.0,031099,,,A*66
$GPGGA,183248.000,4717.2263,N,01122.5458,E,1,07,1.2,453.15,M,41.34,M,,*54
$GPRMC,183248.000,A,4717.2263,N,01122.5458,E,0.0,058.0,031099,,,A*69
$GPGGA,183249.000,4717.2263,N,01122.5458,E,1,07,1.2,453.15,M,41.34,M,,*55
$GPRMC,183249.000,A,4717.2263,N,01122.5458,E,0.0,058.0,031099,,,A*68
$GPGGA,183250.000,4717.2263,N,01122.5458,E,1,07,1.2,453.15,M,41.34,M,,*5D
$GPRMC,183250.000,A,4717.2263,N,01122.5458,E,0.0,058.0,031099,,,A*60
$GPGGA,183251.000,4717.2263,N,01122.5458,E,1,07,1.2,453.15,M,41.34,M,,*5C
$GPRMC,183251.000,A,4717.2263,N,01122.5458,E,0.0,058.0,031099,,,A*61
$GPGGA,183252.000,4717.2263,N,01122.5458,E,1,07,1.2,453.15,M,41.34,M,,*5F
$GPRMC,183252.000,A,4717.2263,N,01122.5458,E,0.0,058.0,031099,,,A*62
$GPGGA,183253.000,4717.2263,N,01122.5458,E,1,07,1.2,453.15,M,41.34,M,,*5E
$GPRMC,183253.000,A,4717.2263,N,01122.5458,E,0.0,058.0,031099,,,A*63
$GPGGA,183254.000,4717.2263,N,01122.5458,E,1,07,1.2,453.15,M,41.34,M,,*59
$GPRMC,183254.000,A,4717.2263,N,01122.5458,E,0.0,058.0,031099,,,A*64
$GPGGA,183255.000,4717.2263,N,01122.5458,E,1,07,1.2,453.15,M,41.34,M,,*58
$GPRMC,183255.000,A,4717.2263,N,01122.5458,E,0.0,058.0,031099,,,A*65
$GPGGA,183256.000,4717.2263,N,01122.5458,E,1,07,1.2,453.15,M,41.34,M,,*5B
$GPRMC,183256.000,A,4717.2263,N,01122.5458,E,0.0,058.0,031099,,,A*66
$GPGGA,183257.000,4717.2263,N,01122.5458,E,1,07,1.2,453.15,M,41.34,M,,*5A
$GPRMC,183257.000,A,4717.2263,N,01122.5458,E,0.0,058.0,031099,,,A*67
$GPGGA,183258.000,4717.2263,N,01122.5458,E,1,07,1.2,453.15,M,41.34,M,,*55
$GPRMC,183258.000,A,4717.2263,N,01122.5458,E,0.0,058.0,031099,,,A*68
$GPGGA,183259.000,4717.2263,N,01122.5458,E,1,07,1.2,453.15,M,41.34,M,,*54
$GPRMC,183259.000,A,4717.2263,N,01122.5458,E,0.0,058.0,031099,,,A*69
$GPGGA,183300.000,4717.2263,N,01122.5458,E,1,07,1.2,453.15,M,41.34,M,,*59
$GPRMC,183300.000,A,4717.2263,N,01122.5458,E,0.0,058.0,031099,,,A*64
$GPGGA,183301.000,4717.2263,N,01122.5458,E,1,07,1.2,453.15,M,41.34,M,,*58
$GPRMC,183301.000,A,4717.2263,N,01122.5458,E,0.0,058.0,031099,,,A*65
$GPGGA,183302.000,4717.2263,N,01122.5458,E,1,07,1.2,453.15,M,41.34,M,,*5B
$GPRMC,183302.000,A,4717.2263,N,01122.5458,E,0.0,058.0,031099,,,A*66
$GPGGA,183303.000,4717.2263,N,01122.5458,E,1,07,1.2,453.15,M,41.34,M,,*5A
$GPRMC,183303.000,A,4717.2263,N,01122.5458,E,0.0,058.0,031099,,,A*67
$GPGGA,183304.000,4717.2263,N,01122.5458,E,1,07,1.2,453.15,M,41.34,M,,*5D
$GPRMC,183304.000,A,4717.2263,N,01122.5458,E,0.0,058.0,031099,,,A*60
$GPGGA,183305.000,4717.2263,N,01122.5458,E,1,07,1.2,453.15,M,41.34,M,,*5C
$GPRMC,183305.000,A,4717.2263,N,01122.5458,E,0.0,058.0,031099,,,A*61
$GPGGA,183306.000,4717.2263,N,01122.5458,E,1,07,1.2,453.15,M,41.34,M,,*5F
$GPRMC,183306.000,A,4717.2263,N,01122.5458,E,0.0,058.0,031099,,,A*62
$GPGGA,183307.000,4717.2263,N,01122.5458,E,1,07,1.2,453.15,M,41.34,M,,*5E
$GPRMC,183307.000,A,4717.2263,N,01122.5458,E,0.0,058.0,031099,,,A*63
$GPGGA,183308.000,4717.2263,N,01122.5458,E,1,07,1.2,453.15,M,41.34,M,,*51
$GPRMC,183308.000,A,4717.2263,N,01122.5458,E,0.0,058.0,031099,,,A*6C
$GPGGA,183309.000,4717.2263,N,01122.5458,E,1,07,1.2,453.15,M,41.34,M,,*50
$GPRMC,183309.000,A,4717.2263,N,01122.5458,E,0.0,058.0,031099,,,A*6D
$GPGGA,183310.000,4717.2263,N,01122.5458,E,1,07,1.2,453.15,M,41.34,M,,*58
$GPRMC,183310.000,A,4717.2263,N,01122.5458,E,0.0,058.0,031099,,,A*65
$GPGGA,183311.000,4717.2263,N,01122.5458,E,1,07,1.2,453.15,M,41.34,M,,*59
$GPRMC,183311.000,A,4717.2263,N,01122.5458,E,0.0,058.0,031099,,,A*64
$GPGGA,183312.000,4717.2263,N,01122.5458,E,1,07,1.2,453.15,M,41.34,M,,*5A
$GPRMC,183312.000,A,4717.2263,N,01122.5458,E,0.0,058.0,031099,,,A*67
$GPGGA,183313.000,4717.2263,N,01122.5458,E,1,07,1.2,453.15,M,41.34,M,,*5B
$GPRMC,183313.000,A,4717.2263,N,01122.5458,E,0.0,058.0,031099,,,A*66
$GPGGA,183314.000,4717.2263,N,01122.5458,E,1,07,1.2,453.15,M,41.34,M,,*5C
$GPRMC,183314.000,A,4717.2263,N,01122.5458,E,0.0,058.0,031099,,,A*61
$GPGGA,183315.000,4717.2263,N,01122.5458,E,1,07,1.2,453.15,M,41.34,M,,*5D
$GPRMC,183315.000,A,4717.2263,N,01122.5458,E,0.0,058.0,031099,,,A*60
$GPGGA,183316.000,4717.2263,N,01122.5458,E,1,07,1.2,453.15,M,41.34,M,,*5E
$GPRMC,183316.000,A,4717.2263,N,01122.5458,E,0.0,058.0,031099,,,A*63
$GPGGA,183317.000,4717.2263,N,01122.5458,E,1,07,1.2,453.15,M,41.34,M,,*5F
$GPRMC,183317.000,A,4717.2263,N,01122.5458,E,0.0,058.0,031099,,,A*62
$GPGGA,183318.000,4717.2263,N,01122.5458,E,1,07,1.2,453.15,M,41.34,M,,*50
$GPRMC,183318.000,A,4717.2263,N,01122.5458,E,0.0,058.0,031099,,,A*6D
$GPGGA,183319.000,4717.2263,N,01122.5458,E,1,07,1.2,453.15,M,41.34,M,,*51
$GPRMC,183319.000,A,4717.2263,N,01122.5458,E,0.0,058.0,031099,,,A*6C
$GPGGA,183320.000,4717.2263,N,01122.5458,E,1,07,1.2,453.15,M,41.34,M,,*5B
$GPRMC,183320.000,A,4717.2263,N,01122.5458,E,0.0,058.0,031099,,,A*66
$GPGGA,183321.000,4717.2263,N,01122.5458,E,1,07,1.2,453.15,M,41.34,M,,*5A
$GPRMC,183321.000,A,4717.2263,N,01122.5458,E,0.0,058.0,031099,,,A*67
$GPGGA,183322.000,4717.2263,N,01122.5458,E,1,07,1.2,453.15,M,41.34,M,,*59
$GPRMC,183322.000,A,4717.2263,N,01122.5458,E,0.0,058.0,031099,,,A*64
$GPGGA,183323.000,4717.2263,N,01122.5458,E,1,07,1.2,453.15,M,41.34,M,,*58
$GPRMC,183323.000,A,4717.2263,N,01122.5458,E,0.0,058.0,031099,,,A*65
$GPGGA,183324.000,4717.2263,N,01122.5458,E,1,07,1.2,453.15,M,41.34,M,,*5F
$GPRMC,183324.000,A,4717.2263,N,01122.5458,E,0.0,058.0,031099,,,A*62
$GPGGA,183325.000,4717.2263,N,01122.5458,E,1,07,1.2,453.15,M,41.34,M,,*5E
$GPRMC,183325.000,A,4717.2263,N,01122.5458,E,0.0,058.0,031099,,,A*63
$GPGGA,183326.000,4717.2263,N,01122.5458,E,1,07,1.2,453.15,M,41.34,M,,*5D
$GPRMC,183326.000,A,4717.2263,N,01122.5458,E,0.0,058.0,031099,,,A*60
$GPGGA,183327.000,4717.2263,N,01122.5458,E,1,07,1.2,453.15,M,41.34,M,,*5C
$GPRMC,183327.000,A,4717.2263,N,01122.5458,E,0.0,058.0,031099,,,A*61
$GPGGA,183328.000,4717.2263,N,01122.5458,E,1,07,1.2,453.15,M,41.34,M,,*53
$GPRMC,183328.000,A,4717.2263,N,01122.5458,E,0.0,058.0,031099,,,A*6E
$GPGGA,183329.000,4717.2263,N,01122.5458,E,1,07,1.2,453.15,M,41.34,M,,*52
$GPRMC,183329.000,A,4717.2263,N,01122.5458,E,0.0,058.0,031099,,,A*6F
$GPGGA,183330.000,4717.2263,N,01122.5458,E,1,07,1.2,453.15,M,41.34,M,,*5A
$GPRMC,183330.000,A,4717.2263,N,01122.5458,E,0.0,058.0,031099,,,A*67
$GPGGA,183331.000,4717.2263,N,01122.5458,E,1,07,1.2,453.15,M,41.34,M,,*5B
$GPRMC,183331.000,A,4717.2263,N,01122.5458,E,0.0,058.0,031099,,,A*66
$GPGGA,183332.000,4717.2263,N,01122.5458,E,1,07,1.2,453.15,M,41.34,M,,*58
$GPRMC,183332.000,A,4717.2263,N,01122.5458,E,0.0,058.0,031099,,,A*65
$GPGGA,183333.000,4717.2263,N,01122.5458,E,1,07,1.2,453.15,M,41.34,M,,*59
$GPRMC,183333.000,A,4717.2263,N,01122.5458,E,0.0,058.0,031099,,,A*64
$GPGGA,183334.000,4717.2263,N,01122.5458,E,1,07,1.2,453.15,M,41.34,M,,*5E
$GPRMC,183334.000,A,4717.2263,N,01122.5458,E,0.0,058.0,031099,,,A*63
$GPGGA,183335.000,4717.2263,N,01122.5458,E,1,07,1.2,453.15,M,41.34,M,,*5F
$GPRMC,183335.000,A,4717.2263,N,01122.5458,E,0.0,058.0,031099,,,A*62
$GPGGA,183336.000,4717.2263,N,01122.5458,E,1,07,1.2,453.15,M,41.34,M,,*5C
$GPRMC,183336.000,A,4717.2263,N,01122.5458,E,0.0,058.0,031099,,,A*61
$GPGGA,183337.000,4717.2263,N,01122.5458,E,1,07,1.2,453.15,M,41.34,M,,*5D
$GPRMC,183337.000,A,4717.2263,N,01122.5458,E,0.0,058.0,031099,,,A*60
$GPGGA,183338.000,4717.2263,N,01122.5458,E,1,07,1.2,453.15,M,41.34,M,,*52
$GPRMC,183338.000,A,4717.2263,N,01122.5458,E,0.0,058.0,031099,,,A*6F
$GPGGA,183339.000,4717.2263,N,01122.5458,E,1,07,1.2,453.15,M,41.34,M,,*53
$GPRMC,183339.000,A,4717.2263,N,01122.5458,E,0.0,058.0,031099,,,A*6E
$GPGGA,183340.000,4717.2263,N,01122.5458,E,1,07,1.2,453.15,M,41.34,M,,*5D
$GPRMC,183340.000,A,4717.2263,N,01122.5458,E,0.0,058.0,031099,,,A*60
$GPGGA,183341.000,4717.2263,N,01122.5458,E,1,07,1.2,453.15,M,41.34,M,,*5C
$GPRMC,183341.000,A,4717.2263,N,01122.5458,E,0.0,058.0,031099,,,A*61
$GPGGA,183342.000,4717.2263,N,01122.5458,E,1,07,1.2,453.15,M,41.34,M,,*5F
$GPRMC,183342.000,A,4717.2263,N,01122.5458,E,0.0,058.0,031099,,,A*62
$GPGGA,183343.000,4717.2263,N,01122.5458,E,1,07,1.2,453.15,M,41.34,M,,*5E
$GPRMC,183343.000,A,4717.2263,N,01122.5458,E,0.0,058.0,031099,,,A*63
$GPGGA,183344.000,4717.2263,N,01122.5458,E,1,07,1.2,453.15,M,41.34,M,,*59
$GPRMC,183344.000,A,4717.2263,N,01122.5458,E,0.0,058.0,031099,,,A*64
$GPGGA,183345.000,4717.2263,N,01122.5458,E,1,07,1.2,453.15,M,41.34,M,,*58
$GPRMC,183345.000,A,4717.2263,N,01122.5458,E,0.0,058.0,031099,,,A*65
$GPGGA,183346.000,4717.2263,N,01122.5458,E,1,07,1.2,453.15,M,41.34,M,,*5B
$GPRMC,183346.000,A,4717.2263,N,01122.5458,E,0.0,058.0,031099,,,A*66
$GPGGA,183347.000,4717.2263,N,01122.5458,E,1,07,1.2,453.15,M,41.34,M,,*5A
$GPRMC,183347.000,A,4717.2263,N,01122.5458,E,0.0,058.0,031099,,,A*67
$GPGGA,183348.000,4717.2263,N,01122.5458,E,1,07,1.2,453.15,M,41.34,M,,*55
$GPRMC,183348.000,A,4717.2263,N,01122.5458,E,0.0,058.0,031099,,,A*68
$GPGGA,183349.000,4717.2263,N,01122.5458,E,1,07,1.2,453.15,M,41.34,M,,*54
$GPRMC,183349.000,A,4717.2263,N,01122.5458,E,0.0,058.0,031099,,,A*69
$GPGGA,183350.000,4717.2263,N,01122.5458,E,1,07,1.2,453.15,M,41.34,M,,*5C
$GPRMC,183350.000,A,4717.2263,N,01122.5458,E,0.0,058.0,031099,,,A*61
$GPGGA,183351.000,4717.2263,N,01122.5458,E,1,07,1.2,453.15,M,41.34,M,,*5D
$GPRMC,183351.000,A,4717.2263,N,01122.5458,E,0.0,058.0,031099,,,A*60
$GPGGA,183352.000,4717.2263,N,01122.5458,E,1,07,1.2,453.15,M,41.34,M,,*5E
$GPRMC,183352.000,A,4717.2263,N,01122.5458,E,0.0,058.0,031099,,,A*63
$GPGGA,183353.000,4717.2263,N,01122.5458,E,1,07,1.2,453.15,M,41.34,M,,*5F
$GPRMC,183353.000,A,4717.2263,N,01122.5458,E,0.0,058.0,031099,,,A*62
$GPGGA,183354.000,4717.2263,N,01122.5458,E,1,07,1.2,453.15,M,41.34,M,,*58
$GPRMC,183354.000,A,4717.2263,N,01122.5458,E,0.0,058.0,031099,,,A*65
$GPGGA,183355.000,4717.2263,N,01122.5458,E,1,07,1.2,453.15,M,41.34,M,,*59
$GPRMC,183355.000,A,4717.2263,N,01122.5458,E,0.0,058.0,031099,,,A*64
$GPGGA,183356.000,4717.2263,N,01122.5458,E,1,07,1.2,453.15,M,41.34,M,,*5A
$GPRMC,183356.000,A,4717.2263,N,01122.5458,E,0.0,058.0,031099,,,A*67
$GPGGA,183357.000,4717.2263,N,01122.5458,E,1,07,1.2,453.15,M,41.34,M,,*5B
$GPRMC,183357.000,A,4717.2263,N,01122.5458,E,0.0,058.0,031099,,,A*66
$GPGGA,183358.000,4717.2263,N,01122.5458,E,1,07,1.2,453.15,M,41.34,M,,*54
$GPRMC,183358.000,A,4717.2263,N,01122.5458,E,0.0,058.0,031099,,,A*69
$GPGGA,183359.000,4717.2263,N,01122.5458,E,1,07,1.2,453.15,M,41.34,M,,*55
$GPRMC,183359.000,A,4717.2263,N,01122.5458,E,0.0,058.0,031099,,,A*68
$GPGGA,183400.000,4717.2263,N,01122.5458,E,1,07,1.2,453.15,M,41.34,M,,*5E
$GPRMC,183400.000,A,4717.2263,N,01122.5458,E,0.0,058.0,031099,,,A*63
$GPGGA,183401.000,4717.2263,N,01122.5458,E,1,07,1.2,453.15,M,41.34,M,,*5F
$GPRMC,183401.000,A,4717.2263,N,01122.5458,E,0.0,058.0,031099,,,A*62
$GPGGA,183402.000,4717.2263,N,01122.5458,E,1,07,1.2,453.15,M,41.34,M,,*5C
$GPRMC,183402.000,A,4717.2263,N,01122.5458,E,0.0,058.0,031099,,,A*61
$GPGGA,183403.000,4717.2263,N,01122.5458,E,1,07,1.2,453.15,M,41.34,M,,*5D
$GPRMC,183403.000,A,4717.2263,N,01122.5458,E,0.0,058.0,031099,,,A*60
$GPGGA,183404.000,4717.2263,N,01122.5458,E,1,07,1.2,453.15,M,41.34,M,,*5A
$GPRMC,183404.000,A,4717.2263,N,01122.5458,E,0.0,058.0,031099,,,A*67
$GPGGA,183405.000,4717.2263,N,01122.5458,E,1,07,1.2,453.15,M,41.34,M,,*5B
$GPRMC,183405.000,A,4717.2263,N,01122.5458,E,0.0,058.0,031099,,,A*66
$GPGGA,183406.000,4717.2263,N,01122.5458,E,1,07,1.2,453.15,M,41.34,M,,*58
$GPRMC,183406.000,A,4717.2263,N,01122.5458,E,0.0,058.0,031099,,,A*65
$GPGGA,183407.000,4717.2263,N,01122.5458,E,1,07,1.2,453.15,M,41.34,M,,*59
$GPRMC,183407.000,A,4717.2263,N,01122.5458,E,0.0,058.0,031099,,,A*64
$GPGGA,183408.000,4717.2263,N,01122.5458,E,1,07,1.2,453.15,M,41.34,M,,*56
$GPRMC,183408.000,A,4717.2263,N,01122.5458,E,0.0,058.0,031099,,,A*6B
$GPGGA,183409.000,4717.2263,N,01122.5458,E,1,07,1.2,453.15,M,41.34,M,,*57
$GPRMC,183409.000,A,4717.2263,N,01122.5458,E,0.0,058.0,031099,,,A*6A
$GPGGA,183410.000,4717.2263,N,01122.5458,E,1,07,1.2,453.15,M,41.34,M,,*5F
$GPRMC,183410.000,A,4717.2263,N,01122.5458,E,0.0,058.0,031099,,,A*62
$GPGGA,183411.000,4717.2244,N,01122.5487,E,1,07,1.2,455.01,M,41.34,M,,*5A
$GPRMC,183411.000,A,4717.2244,N,01122.5487,E,0.0,058.0,031099,,,A*64
$GPGGA,183412.000,4717.2244,N,01122.5487,E,1,07,1.2,455.01,M,41.34,M,,*59
$GPRMC,183412.000,A,4717.2244,N,01122.5487,E,0.0,058.0,031099,,,A*67
$GPGGA,183413.000,4717.2244,N,01122.5487,E,1,07,1.2,455.01,M,41.34,M,,*58
$GPRMC,183413.000,A,4717.2244,N,01122.5487,E,0.0,058.0,031099,,,A*66
$GPGGA,183414.000,4717.2244,N,01122.5487,E,1,07,1.2,455.01,M,41.34,M,,*5F
$GPRMC,183414.000,A,4717.2244,N,01122.5487,E,0.0,058.0,031099,,,A*61
$GPGGA,183415.000,4717.2244,N,01122.5487,E,1,07,1.2,455.01,M,41.34,M,,*5E
$GPRMC,183415.000,A,4717.2244,N,01122.5487,E,0.0,058.0,031099,,,A*60
$GPGGA,183416.000,4717.2244,N,01122.5487,E,1,07,1.2,455.01,M,41.34,M,,*5D
$GPRMC,183416.000,A,4717.2244,N,01122.5487,E,0.0,058.0,031099,,,A*63
$GPGGA,183417.000,4717.2244,N,01122.5487,E,1,07,1.2,455.01,M,41.34,M,,*5C
$GPRMC,183417.000,A,4717.2244,N,01122.5487,E,0.0,058.0,031099,,,A*62
$GPGGA,183418.000,4717.2244,N,01122.5487,E,1,07,1.2,455.01,M,41.34,M,,*53
$GPRMC,183418.000,A,4717.2244,N,01122.5487,E,0.0,058.0,031099,,,A*6D
$GPGGA,183419.000,4717.2244,N,01122.5487,E,1,07,1.2,455.01,M,41.34,M,,*52
$GPRMC,183419.000,A,4717.2244,N,01122.5487,E,0.0,058.0,031099,,,A*6C
$GPGGA,183420.000,4717.2244,N,01122.5487,E,1,07,1.2,455.01,M,41.34,M,,*58
$GPRMC,183420.000,A,4717.2244,N,01122.5487,E,0.0,058.0,031099,,,A*66
$GPGGA,183421.000,4717.2244,N,01122.5487,E,1,07,1.2,455.01,M,41.34,M,,*59
$GPRMC,183421.000,A,4717.2244,N,01122.5487,E,0.0,058.0,031099,,,A*67
$GPGGA,183422.000,4717.2244,N,01122.5487,E,1,07,1.2,455.01,M,41.34,M,,*5A
$GPRMC,183422.000,A,4717.2244,N,01122.5487,E,0.0,058.0,031099,,,A*64
$GPGGA,183423.000,4717.2244,N,01122.5487,E,1,07,1.2,455.01,M,41.34,M,,*5B
$GPRMC,183423.000,A,4717.2244,N,01122.5487,E,0.0,058.0,031099,,,A*65
$GPGGA,183424.000,4717.2244,N,01122.5487,E,1,07,1.2,455.01,M,41.34,M,,*5C
$GPRMC,183424.000,A,4717.2244,N,01122.5487,E,0.0,058.0,031099,,,A*62
$GPGGA,183425.000,4717.2244,N,01122.5487,E,1,07,1.2,455.01,M,41.34,M,,*5D
$GPRMC,183425.000,A,4717.2244,N,01122.5487,E,0.0,058.0,031099,,,A*63
$GPGGA,183426.000,4717.2244,N,01122.5487,E,1,07,1.2,455.01,M,41.34,M,,*5E
$GPRMC,183426.000,A,4717.2244,N,01122.5487,E,0.0,058.0,031099,,,A*60
$GPGGA,183427.000,4717.2244,N,01122.5487,E,1,07,1.2,455.01,M,41.34,M,,*5F
$GPRMC,183427.000,A,4717.2244,N,01122.5487,E,0.0,058.0,031099,,,A*61
$GPGGA,183428.000,4717.2244,N,01122.5487,E,1,07,1.2,455.01,M,41.34,M,,*50
$GPRMC,183428.000,A,4717.2244,N,01122.5487,E,0.0,058.0,031099,,,A*6E
$GPGGA,183429.000,4717.2244,N,01122.5487,E,1,07,1.2,455.01,M,41.34,M,,*51
$GPRMC,183429.000,A,4717.2244,N,01122.5487,E,0.0,058.0,031099,,,A*6F
$GPGGA,183430.000,4717.2244,N,01122.5487,E,1,07,1.2,455.01,M,41.34,M,,*59
$GPRMC,183430.000,A,4717.2244,N,01122.5487,E,0.0,058.0,031099,,,A*67
$GPGGA,183431.000,4717.2244,N,01122.5487,E,1,07,1.2,455.01,M,41.34,M,,*58
$GPRMC,183431.000,A,4717.2244,N,01122.5487,E,0.0,058.0,031099,,,A*66
$GPGGA,183432.000,4717.2244,N,01122.5487,E,1,07,1.2,455.01,M,41.34,M,,*5B
$GPRMC,183432.000,A,4717.2244,N,01122.5487,E,0.0,058.0,031099,,,A*65
$GPGGA,183433.000,4717.2244,N,01122.5487,E,1,07,1.2,455.01,M,41.34,M,,*5A
$GPRMC,183433.000,A,4717.2244,N,01122.5487,E,0.0,058.0,031099,,,A*64
$GPGGA,183434.000,4717.2244,N,01122.5487,E,1,07,1.2,455.01,M,41.34,M,,*5D
$GPRMC,183434.000,A,4717.2244,N,01122.5487,E,0.0,058.0,031099,,,A*63
$GPGGA,183435.000,4717.2244,N,01122.5487,E,1,07,1.2,455.01,M,41.34,M,,*5C
$GPRMC,183435.000,A,4717.2244,N,01122.5487,E,0.0,058.0,031099,,,A*62
$GPGGA,183436.000,4717.2244,N,01122.5487,E,1,07,1.2,455.01,M,41.34,M,,*5F
$GPRMC,183436.000,A,4717.2244,N,01122.5487,E,0.0,058.0,031099,,,A*61
$GPGGA,183437.000,4717.2244,N,01122.5487,E,1,07,1.2,455.01,M,41.34,M,,*5E
$GPRMC,183437.000,A,4717.2244,N,01122.5487,E,0.0,058.0,031099,,,A*60
$GPGGA,183438.000,4717.2244,N,01122.5487,E,1,06,1.3,455.01,M,41.34,M,,*51
$GPRMC,183438.000,A,4717.2244,N,01122.5487,E,0.0,058.0,031099,,,A*6F
$GPGGA,183439.000,4717.2244,N,01122.5487,E,1,06,1.3,455.01,M,41.34,M,,*50
$GPRMC,183439.000,A,4717.2244,N,01122.5487,E,0.0,058.0,031099,,,A*6E
$GPGGA,183440.000,4717.2244,N,01122.5487,E,1,07,1.2,455.01,M,41.34,M,,*5E
$GPRMC,183440.000,A,4717.2244,N,01122.5487,E,0.0,058.0,031099,,,A*60
$GPGGA,183441.000,4717.2276,N,01122.5454,E,1,07,1.2,405.17,M,41.34,M,,*52
$GPRMC,183441.000,A,4717.2276,N,01122.5454,E,0.2,234.6,031099,,,A*62
$GPGGA,183442.000,4717.2276,N,01122.5453,E,1,07,1.2,404.46,M,41.34,M,,*53
$GPRMC,183442.000,A,4717.2276,N,01122.5453,E,0.0,234.6,031099,,,A*64
$GPGGA,183443.000,4717.2276,N,01122.5453,E,1,07,1.2,404.46,M,41.34,M,,*52
$GPRMC,183443.000,A,4717.2276,N,01122.5453,E,0.0,234.6,031099,,,A*65
$GPGGA,183444.000,4717.2276,N,01122.5453,E,1,06,1.3,404.46,M,41.34,M,,*55
$GPRMC,183444.000,A,4717.2276,N,01122.5453,E,0.0,234.6,031099,,,A*62
$GPGGA,183445.000,4717.2276,N,01122.5453,E,1,07,1.2,404.46,M,41.34,M,,*54
$GPRMC,183445.000,A,4717.2276,N,01122.5453,E,0.0,234.6,031099,,,A*63
$GPGGA,183446.000,4717.2276,N,01122.5453,E,1,06,1.3,404.46,M,41.34,M,,*57
$GPRMC,183446.000,A,4717.2276,N,01122.5453,E,0.0,234.6,031099,,,A*60
$GPGGA,183447.000,4717.2276,N,01122.5453,E,1,07,1.2,404.46,M,41.34,M,,*56
$GPRMC,183447.000,A,4717.2276,N,01122.5453,E,0.0,234.6,031099,,,A*61
$GPGGA,183448.000,4717.2276,N,01122.5453,E,1,07,1.2,404.46,M,41.34,M,,*59
$GPRMC,183448.000,A,4717.2276,N,01122.5453,E,0.0,234.6,031099,,,A*6E
$GPGGA,183449.000,4717.2276,N,01122.5453,E,1,07,1.2,404.46,M,41.34,M,,*58
$GPRMC,183449.000,A,4717.2276,N,01122.5453,E,0.0,234.6,031099,,,A*6F
$GPGGA,183450.000,4717.2276,N,01122.5453,E,1,07,1.2,404.46,M,41.34,M,,*50
$GPRMC,183450.000,A,4717.2276,N,01122.5453,E,0.0,234.6,031099,,,A*67
$GPGGA,183451.000,4717.2276,N,01122.5453,E,1,07,1.2,404.46,M,41.34,M,,*51
$GPRMC,183451.000,A,4717.2276,N,01122.5453,E,0.0,234.6,031099,,,A*66
$GPGGA,183452.000,4717.2276,N,01122.5453,E,1,07,1.2,404.46,M,41.34,M,,*52
$GPRMC,183452.000,A,4717.2276,N,01122.5453,E,0.0,234.6,031099,,,A*65
$GPGGA,183453.000,4717.2276,N,01122.5453,E,1,07,1.2,404.46,M,41.34,M,,*53
$GPRMC,183453.000,A,4717.2276,N,01122.5453,E,0.0,234.6,031099,,,A*64
$GPGGA,183454.000,4717.2276,N,01122.5453,E,1,07,1.2,404.46,M,41.34,M,,*54
$GPRMC,183454.000,A,4717.2276,N,01122.5453,E,0.0,234.6,031099,,,A*63
$GPGGA,183455.000,4717.2276,N,01122.5453,E,1,07,1.2,404.46,M,41.34,M,,*55
$GPRMC,183455.000,A,4717.2276,N,01122.5453,E,0.0,234.6,031099,,,A*62
$GPGGA,183456.000,4717.2276,N,01122.5453,E,1,06,1.3,404.46,M,41.34,M,,*56
$GPRMC,183456.000,A,4717.2276,N,01122.5453,E,0.0,234.6,031099,,,A*61
$GPGGA,183457.000,4717.2276,N,01122.5453,E,1,06,1.3,404.46,M,41.34,M,,*57
$GPRMC,183457.000,A,4717.2276,N,01122.5453,E,0.0,234.6,031099,,,A*60
$GPGGA,183458.000,4717.2276,N,01122.5453,E,1,07,1.2,404.46,M,41.34,M,,*58
$GPRMC,183458.000,A,4717.2276,N,01122.5453,E,0.0,234.6,031099,,,A*6F
$GPGGA,183459.000,4717.2276,N,01122.5453,E,1,06,1.3,404.46,M,41.34,M,,*59
$GPRMC,183459.000,A,4717.2276,N,01122.5453,E,0.0,234.6,031099,,,A*6E
$GPGGA,183500.000,4717.2276,N,01122.5453,E,1,06,1.3,404.46,M,41.34,M,,*54
$GPRMC,183500.000,A,4717.2276,N,01122.5453,E,0.0,234.6,031099,,,A*63
$GPGGA,183501.000,4717.2276,N,01122.5453,E,1,06,1.3,404.46,M,41.34,M,,*55
$GPRMC,183501.000,A,4717.2276,N,01122.5453,E,0.0,234.6,031099,,,A*62
$GPGGA,183502.000,4717.2276,N,01122.5453,E,1,06,1.3,404.46,M,41.34,M,,*56
$GPRMC,183502.000,A,4717.2276,N,01122.5453,E,0.0,234.6,031099,,,A*61
$GPGGA,183503.000,4717.2276,N,01122.5453,E,1,06,1.3,404.46,M,41.34,M,,*57
$GPRMC,183503.000,A,4717.2276,N,01122.5453,E,0.0,234.6,031099,,,A*60
$GPGGA,183504.000,4717.2276,N,01122.5453,E,1,07,1.2,404.46,M,41.34,M,,*50
$GPRMC,183504.000,A,4717.2276,N,01122.5453,E,0.0,234.6,031099,,,A*67
$GPGGA,183505.000,4717.2276,N,01122.5453,E,1,06,1.3,404.46,M,41.34,M,,*51
$GPRMC,183505.000,A,4717.2276,N,01122.5453,E,0.0,234.6,031099,,,A*66
$GPGGA,183506.000,4717.2276,N,01122.5453,E,1,06,1.3,404.46,M,41.34,M,,*52
$GPRMC,183506.000,A,4717.2276,N,01122.5453,E,0.0,234.6,031099,,,A*65
$GPGGA,183507.000,4717.2276,N,01122.5453,E,1,06,1.3,404.46,M,41.34,M,,*53
$GPRMC,183507.000,A,4717.2276,N,01122.5453,E,0.0,234.6,031099,,,A*64
$GPGGA,183508.000,4717.2276,N,01122.5453,E,1,06,1.3,404.46,M,41.34,M,,*5C
$GPRMC,183508.000,A,4717.2276,N,01122.5453,E,0.0,234.6,031099,,,A*6B
$GPGGA,183509.000,4717.2276,N,01122.5453,E,1,06,1.3,404.46,M,41.34,M,,*5D
$GPRMC,183509.000,A,4717.2276,N,01122.5453,E,0.0,234.6,031099,,,A*6A
$GPGGA,183510.000,4717.2276,N,01122.5453,E,1,06,1.3,404.46,M,41.34,M,,*55
$GPRMC,183510.000,A,4717.2276,N,01122.5453,E,0.0,234.6,031099,,,A*62
$GPGGA,183511.000,4717.2276,N,01122.5453,E,1,06,1.3,404.46,M,41.34,M,,*54
$GPRMC,183511.000,A,4717.2276,N,01122.5453,E,0.0,234.6,031099,,,A*63
$GPGGA,183512.000,4717.2276,N,01122.5453,E,1,06,1.3,404.46,M,41.34,M,,*57
$GPRMC,183512.000,A,4717.2276,N,01122.5453,E,0.0,234.6,031099,,,A*60
$GPGGA,183513.000,4717.2276,N,01122.5453,E,1,07,1.2,404.46,M,41.34,M,,*56
$GPRMC,183513.000,A,4717.2276,N,01122.5453,E,0.0,234.6,031099,,,A*61
$GPGGA,183514.000,4717.2276,N,01122.5453,E,1,07,1.2,404.46,M,41.34,M,,*51
$GPRMC,183514.000,A,4717.2276,N,01122.5453,E,0.0,234.6,031099,,,A*66
$GPGGA,183515.000,4717.2276,N,01122.5453,E,1,06,1.3,404.46,M,41.34,M,,*50
$GPRMC,183515.000,A,4717.2276,N,01122.5453,E,0.0,234.6,031099,,,A*67
$GPGGA,183516.000,4717.2276,N,01122.5453,E,1,07,1.2,404.46,M,41.34,M,,*53
$GPRMC,183516.000,A,4717.2276,N,01122.5453,E,0.0,234.6,031099,,,A*64
$GPGGA,183517.000,4717.2276,N,01122.5453,E,1,07,1.2,404.46,M,41.34,M,,*52
$GPRMC,183517.000,A,4717.2276,N,01122.5453,E,0.0,234.6,031099,,,A*65
$GPGGA,183518.000,4717.2276,N,01122.5453,E,1,06,1.3,404.46,M,41.34,M,,*5D
$GPRMC,183518.000,A,4717.2276,N,01122.5453,E,0.0,234.6,031099,,,A*6A
$GPGGA,183519.000,4717.2276,N,01122.5453,E,1,07,1.2,404.46,M,41.34,M,,*5C
$GPRMC,183519.000,A,4717.2276,N,01122.5453,E,0.0,234.6,031099,,,A*6B
$GPGGA,183520.000,4717.2276,N,01122.5453,E,1,06,1.3,404.46,M,41.34,M,,*56
$GPRMC,183520.000,A,4717.2276,N,01122.5453,E,0.0,234.6,031099,,,A*61
$GPGGA,183521.000,4717.2276,N,01122.5453,E,1,06,1.3,404.46,M,41.34,M,,*57
$GPRMC,183521.000,A,4717.2276,N,01122.5453,E,0.0,234.6,031099,,,A*60
$GPGGA,183522.000,4717.2276,N,01122.5453,E,1,07,1.2,404.46,M,41.34,M,,*54
$GPRMC,183522.000,A,4717.2276,N,01122.5453,E,0.0,234.6,031099,,,A*63
$GPGGA,183523.000,4717.2276,N,01122.5453,E,1,07,1.2,404.46,M,41.34,M,,*55
$GPRMC,183523.000,A,4717.2276,N,01122.5453,E,0.0,234.6,031099,,,A*62
$GPGGA,183524.000,4717.2276,N,01122.5453,E,1,07,1.2,404.46,M,41.34,M,,*52
$GPRMC,183524.000,A,4717.2276,N,01122.5453,E,0.0,234.6,031099,,,A*65
$GPGGA,183525.000,4717.2276,N,01122.5453,E,1,07,1.2,404.46,M,41.34,M,,*53
$GPRMC,183525.000,A,4717.2276,N,01122.5453,E,0.0,234.6,031099,,,A*64
$GPGGA,183526.000,4717.2276,N,01122.5453,E,1,07,1.2,404.46,M,41.34,M,,*50
$GPRMC,183526.000,A,4717.2276,N,01122.5453,E,0.0,234.6,031099,,,A*67
$GPGGA,183527.000,4717.2276,N,01122.5453,E,1,07,1.2,404.46,M,41.34,M,,*51
$GPRMC,183527.000,A,4717.2276,N,01122.5453,E,0.0,234.6,031099,,,A*66
$GPGGA,183528.000,4717.2276,N,01122.5453,E,1,07,1.2,404.46,M,41.34,M,,*5E
$GPRMC,183528.000,A,4717.2276,N,01122.5453,E,0.0,234.6,031099,,,A*69
$GPGGA,183529.000,4717.2276,N,01122.5453,E,1,07,1.2,404.46,M,41.34,M,,*5F
$GPRMC,183529.000,A,4717.2276,N,01122.5453,E,0.0,234.6,031099,,,A*68
$GPGGA,183530.000,4717.2276,N,01122.5453,E,1,07,1.2,404.46,M,41.34,M,,*57
$GPRMC,183530.000,A,4717.2276,N,01122.5453,E,0.0,234.6,031099,,,A*60
$GPGGA,183531.000,4717.2276,N,01122.5453,E,1,07,1.2,404.46,M,41.34,M,,*56
$GPRMC,183531.000,A,4717.2276,N,01122.5453,E,0.0,234.6,031099,,,A*61
$GPGGA,183532.000,4717.2276,N,01122.5453,E,1,07,1.2,404.46,M,41.34,M,,*55
$GPRMC,183532.000,A,4717.2276,N,01122.5453,E,0.0,234.6,031099,,,A*62
$GPGGA,183533.000,4717.2276,N,01122.5453,E,1,07,1.2,404.46,M,41.34,M,,*54
$GPRMC,183533.000,A,4717.2276,N,01122.5453,E,0.0,234.6,031099,,,A*63
$GPGGA,183534.000,4717.2276,N,01122.5453,E,1,07,1.2,404.46,M,41.34,M,,*53
$GPRMC,183534.000,A,4717.2276,N,01122.5453,E,0.0,234.6,031099,,,A*64
$GPGGA,183535.000,4717.2276,N,01122.5453,E,1,07,1.2,404.46,M,41.34,M,,*52
$GPRMC,183535.000,A,4717.2276,N,01122.5453,E,0.0,234.6,031099,,,A*65
$GPGGA,183536.000,4717.2276,N,01122.5453,E,1,07,1.2,404.46,M,41.34,M,,*51
$GPRMC,183536.000,A,4717.2276,N,01122.5453,E,0.0,234.6,031099,,,A*66
$GPGGA,183537.000,4717.2276,N,01122.5453,E,1,07,1.2,404.46,M,41.34,M,,*50
$GPRMC,183537.000,A,4717.2276,N,01122.5453,E,0.0,234.6,031099,,,A*67
$GPGGA,183538.000,4717.2276,N,01122.5453,E,1,07,1.2,404.46,M,41.34,M,,*5F
$GPRMC,183538.000,A,4717.2276,N,01122.5453,E,0.0,234.6,031099,,,A*68
$GPGGA,183539.000,4717.2276,N,01122.5453,E,1,07,1.2,404.46,M,41.34,M,,*5E
$GPRMC,183539.000,A,4717.2276,N,01122.5453,E,0.0,234.6,031099,,,A*69
$GPGGA,183540.000,4717.2276,N,01122.5453,E,1,07,1.2,404.46,M,41.34,M,,*50
$GPRMC,183540.000,A,4717.2276,N,01122.5453,E,0.0,234.6,031099,,,A*67
$GPGGA,183541.000,4717.2276,N,01122.5453,E,1,07,1.2,404.46,M,41.34,M,,*51
$GPRMC,183541.000,A,4717.2276,N,01122.5453,E,0.0,234.6,031099,,,A*66
$GPGGA,183542.000,4717.2276,N,01122.5453,E,1,07,1.2,404.46,M,41.34,M,,*52
$GPRMC,183542.000,A,4717.2276,N,01122.5453,E,0.0,234.6,031099,,,A*65
$GPGGA,183543.000,4717.2276,N,01122.5453,E,1,07,1.2,404.46,M,41.34,M,,*53
$GPRMC,183543.000,A,4717.2276,N,01122.5453,E,0.0,234.6,031099,,,A*64
$GPGGA,183544.000,4717.2276,N,01122.5453,E,1,07,1.2,404.46,M,41.34,M,,*54
$GPRMC,183544.000,A,4717.2276,N,01122.5453,E,0.0,234.6,031099,,,A*63
$GPGGA,183545.000,4717.2276,N,01122.5453,E,1,07,1.2,404.46,M,41.34,M,,*55
$GPRMC,183545.000,A,4717.2276,N,01122.5453,E,0.0,234.6,031099,,,A*62
$GPGGA,183546.000,4717.2276,N,01122.5453,E,1,07,1.2,404.46,M,41.34,M,,*56
$GPRMC,183546.000,A,4717.2276,N,01122.5453,E,0.0,234.6,031099,,,A*61
$GPGGA,183547.000,4717.2276,N,01122.5453,E,1,07,1.2,404.46,M,41.34,M,,*57
$GPRMC,183547.000,A,4717.2276,N,01122.5453,E,0.0,234.6,031099,,,A*60
$GPGGA,183548.000,4717.2276,N,01122.5453,E,1,07,1.2,404.46,M,41.34,M,,*58
$GPRMC,183548.000,A,4717.2276,N,01122.5453,E,0.0,234.6,031099,,,A*6F
$GPGGA,183549.000,4717.2276,N,01122.5453,E,1,07,1.2,404.46,M,41.34,M,,*59
$GPRMC,183549.000,A,4717.2276,N,01122.5453,E,0.0,234.6,031099,,,A*6E
$GPGGA,183550.000,4717.2276,N,01122.5453,E,1,07,1.2,404.46,M,41.34,M,,*51
$GPRMC,183550.000,A,4717.2276,N,01122.5453,E,0.0,234.6,031099,,,A*66
$GPGGA,183551.000,4717.2276,N,01122.5453,E,1,07,1.2,404.46,M,41.34,M,,*50
$GPRMC,183551.000,A,4717.2276,N,01122.5453,E,0.0,234.6,031099,,,A*67
$GPGGA,183552.000,4717.2276,N,01122.5453,E,1,07,1.2,404.46,M,41.34,M,,*53
$GPRMC,183552.000,A,4717.2276,N,01122.5453,E,0.0,234.6,031099,,,A*64
$GPGGA,183553.000,4717.2276,N,01122.5453,E,1,07,1.2,404.46,M,41.34,M,,*52
$GPRMC,183553.000,A,4717.2276,N,01122.5453,E,0.0,234.6,031099,,,A*65
$GPGGA,183554.000,4717.2276,N,01122.5453,E,1,07,1.2,404.46,M,41.34,M,,*55
$GPRMC,183554.000,A,4717.2276,N,01122.5453,E,0.0,234.6,031099,,,A*62
$GPGGA,183555.000,4717.2276,N,01122.5453,E,1,07,1.2,404.46,M,41.34,M,,*54
$GPRMC,183555.000,A,4717.2276,N,01122.5453,E,0.0,234.6,031099,,,A*63
$GPGGA,183556.000,4717.2276,N,01122.5453,E,1,07,1.2,404.46,M,41.34,M,,*57
$GPRMC,183556.000,A,4717.2276,N,01122.5453,E,0.0,234.6,031099,,,A*60
$GPGGA,183557.000,4717.2276,N,01122.5453,E,1,07,1.2,404.46,M,41.34,M,,*56
$GPRMC,183557.000,A,4717.2276,N,01122.5453,E,0.0,234.6,031099,,,A*61
$GPGGA,183558.000,4717.2276,N,01122.5453,E,1,07,1.2,404.46,M,41.34,M,,*59
$GPRMC,183558.000,A,4717.2276,N,01122.5453,E,0.0,234.6,031099,,,A*6E
$GPGGA,183559.000,4717.2276,N,01122.5453,E,1,07,1.2,404.46,M,41.34,M,,*58
$GPRMC,183559.000,A,4717.2276,N,01122.5453,E,0.0,234.6,031099,,,A*6F
$GPGGA,183600.000,4717.2276,N,01122.5453,E,1,07,1.2,404.46,M,41.34,M,,*57
$GPRMC,183600.000,A,4717.2276,N,01122.5453,E,0.0,234.6,031099,,,A*60
$GPGGA,183601.000,4717.2276,N,01122.5453,E,1,07,1.2,404.46,M,41.34,M,,*56
$GPRMC,183601.000,A,4717.2276,N,01122.5453,E,0.0,234.6,031099,,,A*61
$GPGGA,183602.000,4717.2276,N,01122.5453,E,1,07,1.2,404.46,M,41.34,M,,*55
$GPRMC,183602.000,A,4717.2276,N,01122.5453,E,0.0,234.6,031099,,,A*62
$GPGGA,183603.000,4717.2276,N,01122.5453,E,1,07,1.2,404.46,M,41.34,M,,*54
$GPRMC,183603.000,A,4717.2276,N,01122.5453,E,0.0,234.6,031099,,,A*63
$GPGGA,183604.000,4717.2276,N,01122.5453,E,1,07,1.2,404.46,M,41.34,M,,*53
$GPRMC,183604.000,A,4717.2276,N,01122.5453,E,0.0,234.6,031099,,,A*64
$GPGGA,183605.000,4717.2276,N,01122.5453,E,1,07,1.2,404.46,M,41.34,M,,*52
$GPRMC,183605.000,A,4717.2276,N,01122.5453,E,0.0,234.6,031099,,,A*65
$GPGGA,183606.000,4717.2276,N,01122.5453,E,1,07,1.2,404.46,M,41.34,M,,*51
